[
  {
    "name": "Chipotle Mexican Grill",
    "address": "1289 Us Highway 72 E",
    "city": "Athens",
    "state": "AL",
    "zip": "",
    "latitude": 34.7853511,
    "longitude": -86.9458827,
    "full_address": "1289 Us Highway 72 E, Athens, AL, USA"
  },
  {
    "name": "Chipotle Mexican Grill",
    "address": "346 W Magnolia Ave",
    "city": "Auburn",
    "state": "AL",
    "zip": "",
    "latitude": 32.6068041,
    "longitude": -85.4873209,
    "full_address": "346 W Magnolia Ave, Auburn, AL, USA"
  },
  {
    "name": "Chipotle Mexican Grill",
    "address": "300 20Th St S",
    "city": "Birmingham",
    "state": "AL",
    "zip": "",
    "latitude": 33.5097202,
    "longitude": -86.802733,
    "full_address": "300 20Th St S, Birmingham, AL, USA"
  },
  {
    "name": "Chipotle Mexican Grill",
    "address": "3220 Morrow Rd",
    "city": "Birmingham",
    "state": "AL",
    "zip": "",
    "latitude": 33.5956162,
    "longitude": -86.6474497,
    "full_address": "3220 Morrow Rd, Birmingham, AL, USA"
  },
  {
    "name": "Chipotle Mexican Grill",
    "address": "4719 Highway 280",
    "city": "Birmingham",
    "state": "AL",
    "zip": "",
    "latitude": 33.4360228,
    "longitude": -86.7197071,
    "full_address": "4719 Highway 280, Birmingham, AL, USA"
  },
  {
    "name": "Chipotle Mexican Grill",
    "address": "5342 Highway 280",
    "city": "Birmingham",
    "state": "AL",
    "zip": "",
    "latitude": 33.4360228,
    "longitude": -86.7197071,
    "full_address": "5342 Highway 280, Birmingham, AL, USA"
  },
  {
    "name": "Chipotle Mexican Grill",
    "address": "1821 Cherokee Ave Sw",
    "city": "Cullman",
    "state": "AL",
    "zip": "",
    "latitude": 34.1461146,
    "longitude": -86.84622,
    "full_address": "1821 Cherokee Ave Sw, Cullman, AL, USA"
  },
  {
    "name": "Chipotle Mexican Grill",
    "address": "914 Van Ave",
    "city": "Daphne",
    "state": "AL",
    "zip": "",
    "latitude": 30.597807,
    "longitude": -87.899438,
    "full_address": "914 Van Ave, Daphne, AL, USA"
  },
  {
    "name": "Chipotle Mexican Grill",
    "address": "1109 Beltline Rd Se",
    "city": "Decatur",
    "state": "AL",
    "zip": "",
    "latitude": 34.5617091,
    "longitude": -86.9773067,
    "full_address": "1109 Beltline Rd Se, Decatur, AL, USA"
  },
  {
    "name": "Chipotle Mexican Grill",
    "address": "3473 Ross Clark Drive",
    "city": "Dothan",
    "state": "AL",
    "zip": "",
    "latitude": null,
    "longitude": null,
    "full_address": "3473 Ross Clark Drive, Dothan, AL, USA"
  },
  {
    "name": "Chipotle Mexican Grill",
    "address": "311 Cox Creek Pkwy",
    "city": "Florence",
    "state": "AL",
    "zip": "",
    "latitude": 34.840753,
    "longitude": -87.6378645,
    "full_address": "311 Cox Creek Pkwy, Florence, AL, USA"
  },
  {
    "name": "Chipotle Mexican Grill",
    "address": "2862 S Mckenzie Street",
    "city": "Foley",
    "state": "AL",
    "zip": "",
    "latitude": null,
    "longitude": null,
    "full_address": "2862 S Mckenzie Street, Foley, AL, USA"
  },
  {
    "name": "Chipotle Mexican Grill",
    "address": "616 Gayle St",
    "city": "Gardendale",
    "state": "AL",
    "zip": "",
    "latitude": 33.6510293,
    "longitude": -86.8244559,
    "full_address": "616 Gayle St, Gardendale, AL, USA"
  },
  {
    "name": "Chipotle Mexican Grill",
    "address": "273 Lakeshore Pkwy",
    "city": "Homewood",
    "state": "AL",
    "zip": "",
    "latitude": 33.4455979,
    "longitude": -86.8253725,
    "full_address": "273 Lakeshore Pkwy, Homewood, AL, USA"
  },
  {
    "name": "Chipotle Mexican Grill",
    "address": "1051 Amber Dr",
    "city": "Hoover",
    "state": "AL",
    "zip": "",
    "latitude": 33.3545614,
    "longitude": -86.8490659,
    "full_address": "1051 Amber Dr, Hoover, AL, USA"
  },
  {
    "name": "Chipotle Mexican Grill",
    "address": "1759 Montgomery Hwy",
    "city": "Hoover",
    "state": "AL",
    "zip": "",
    "latitude": 33.3789535,
    "longitude": -86.8038519,
    "full_address": "1759 Montgomery Hwy, Hoover, AL, USA"
  },
  {
    "name": "Chipotle Mexican Grill",
    "address": "5900 University Dr Nw",
    "city": "Huntsville",
    "state": "AL",
    "zip": "",
    "latitude": 34.7422704,
    "longitude": -86.6671404,
    "full_address": "5900 University Dr Nw, Huntsville, AL, USA"
  },
  {
    "name": "Chipotle Mexican Grill",
    "address": "101 Outfield Dr",
    "city": "Madison",
    "state": "AL",
    "zip": "",
    "latitude": 34.6844232,
    "longitude": -86.7179006,
    "full_address": "101 Outfield Dr, Madison, AL, USA"
  },
  {
    "name": "Chipotle Mexican Grill",
    "address": "8294 Highway 72 W",
    "city": "Madison",
    "state": "AL",
    "zip": "",
    "latitude": null,
    "longitude": null,
    "full_address": "8294 Highway 72 W, Madison, AL, USA"
  },
  {
    "name": "Chipotle Mexican Grill",
    "address": "3871 Airport Blvd",
    "city": "Mobile",
    "state": "AL",
    "zip": "",
    "latitude": 30.6759035,
    "longitude": -88.1433223,
    "full_address": "3871 Airport Blvd, Mobile, AL, USA"
  },
  {
    "name": "Chipotle Mexican Grill",
    "address": "7765 Airport Blvd",
    "city": "Mobile",
    "state": "AL",
    "zip": "",
    "latitude": 30.6827513,
    "longitude": -88.2250379,
    "full_address": "7765 Airport Blvd, Mobile, AL, USA"
  },
  {
    "name": "Chipotle Mexican Grill",
    "address": "2560 Berryhill Rd",
    "city": "Montgomery",
    "state": "AL",
    "zip": "",
    "latitude": 32.3590613,
    "longitude": -86.1622581,
    "full_address": "2560 Berryhill Rd, Montgomery, AL, USA"
  },
  {
    "name": "Chipotle Mexican Grill",
    "address": "2682 Eastern Blvd",
    "city": "Montgomery",
    "state": "AL",
    "zip": "",
    "latitude": 32.3465468,
    "longitude": -86.2236673,
    "full_address": "2682 Eastern Blvd, Montgomery, AL, USA"
  },
  {
    "name": "Chipotle Mexican Grill",
    "address": "2001 Moody Pkwy",
    "city": "Moody",
    "state": "AL",
    "zip": "",
    "latitude": 33.6133175,
    "longitude": -86.463653,
    "full_address": "2001 Moody Pkwy, Moody, AL, USA"
  },
  {
    "name": "Chipotle Mexican Grill",
    "address": "2125 Interstate Dr",
    "city": "Opelika",
    "state": "AL",
    "zip": "",
    "latitude": 32.61684,
    "longitude": -85.4044108,
    "full_address": "2125 Interstate Dr, Opelika, AL, USA"
  },
  {
    "name": "Chipotle Mexican Grill",
    "address": "30 Commons Way",
    "city": "Oxford",
    "state": "AL",
    "zip": "",
    "latitude": 33.6082963,
    "longitude": -85.7880065,
    "full_address": "30 Commons Way, Oxford, AL, USA"
  },
  {
    "name": "Chipotle Mexican Grill",
    "address": "3535 Us Highway 280",
    "city": "Phenix City",
    "state": "AL",
    "zip": "",
    "latitude": null,
    "longitude": null,
    "full_address": "3535 Us Highway 280, Phenix City, AL, USA"
  },
  {
    "name": "Chipotle Mexican Grill",
    "address": "2566 Cobbs Ford Rd",
    "city": "Prattville",
    "state": "AL",
    "zip": "",
    "latitude": 32.4592124,
    "longitude": -86.3913465,
    "full_address": "2566 Cobbs Ford Rd, Prattville, AL, USA"
  },
  {
    "name": "Chipotle Mexican Grill",
    "address": "1203 University Blvd",
    "city": "Tuscaloosa",
    "state": "AL",
    "zip": "",
    "latitude": 33.2107358,
    "longitude": -87.5535821,
    "full_address": "1203 University Blvd, Tuscaloosa, AL, USA"
  },
  {
    "name": "Chipotle Mexican Grill",
    "address": "1800 Mcfarland Blvd E",
    "city": "Tuscaloosa",
    "state": "AL",
    "zip": "",
    "latitude": 33.1947813,
    "longitude": -87.5275393,
    "full_address": "1800 Mcfarland Blvd E, Tuscaloosa, AL, USA"
  },
  {
    "name": "Chipotle Mexican Grill",
    "address": "1031 Montgomery Hwy",
    "city": "Vestavia Hills",
    "state": "AL",
    "zip": "",
    "latitude": 33.4390903,
    "longitude": -86.7882802,
    "full_address": "1031 Montgomery Hwy, Vestavia Hills, AL, USA"
  },
  {
    "name": "Chipotle Mexican Grill",
    "address": "2400 Se Walton Blvd",
    "city": "Bentonville",
    "state": "AR",
    "zip": "",
    "latitude": 36.3346562,
    "longitude": -94.1850991,
    "full_address": "2400 Se Walton Blvd, Bentonville, AR, USA"
  },
  {
    "name": "Chipotle Mexican Grill",
    "address": "1701 E Centerton Blvd",
    "city": "Centerton",
    "state": "AR",
    "zip": "",
    "latitude": 36.3578096,
    "longitude": -94.2558765,
    "full_address": "1701 E Centerton Blvd, Centerton, AR, USA"
  },
  {
    "name": "Chipotle Mexican Grill",
    "address": "2885 Prince St",
    "city": "Conway",
    "state": "AR",
    "zip": "",
    "latitude": 35.0922272,
    "longitude": -92.4708872,
    "full_address": "2885 Prince St, Conway, AR, USA"
  },
  {
    "name": "Chipotle Mexican Grill",
    "address": "915 E Oak St",
    "city": "Conway",
    "state": "AR",
    "zip": "",
    "latitude": 35.0913106,
    "longitude": -92.4186326,
    "full_address": "915 E Oak St, Conway, AR, USA"
  },
  {
    "name": "Chipotle Mexican Grill",
    "address": "3379 N College Ave",
    "city": "Fayetteville",
    "state": "AR",
    "zip": "",
    "latitude": 36.1127126,
    "longitude": -94.145678,
    "full_address": "3379 N College Ave, Fayetteville, AR, USA"
  },
  {
    "name": "Chipotle Mexican Grill",
    "address": "550 W Dickson St",
    "city": "Fayetteville",
    "state": "AR",
    "zip": "",
    "latitude": 36.0668112,
    "longitude": -94.1660923,
    "full_address": "550 W Dickson St, Fayetteville, AR, USA"
  },
  {
    "name": "Chipotle Mexican Grill",
    "address": "6205 Rogers Ave",
    "city": "Fort Smith",
    "state": "AR",
    "zip": "",
    "latitude": 35.3599382,
    "longitude": -94.3636751,
    "full_address": "6205 Rogers Ave, Fort Smith, AR, USA"
  },
  {
    "name": "Chipotle Mexican Grill",
    "address": "4104 Central Ave",
    "city": "Hot Springs",
    "state": "AR",
    "zip": "",
    "latitude": 34.4546779,
    "longitude": -93.0648265,
    "full_address": "4104 Central Ave, Hot Springs, AR, USA"
  },
  {
    "name": "Chipotle Mexican Grill",
    "address": "1737 S Caraway Rd",
    "city": "Jonesboro",
    "state": "AR",
    "zip": "",
    "latitude": 35.8236749,
    "longitude": -90.678453,
    "full_address": "1737 S Caraway Rd, Jonesboro, AR, USA"
  },
  {
    "name": "Chipotle Mexican Grill",
    "address": "100 S University Ave",
    "city": "Little Rock",
    "state": "AR",
    "zip": "",
    "latitude": 34.7520109,
    "longitude": -92.3414943,
    "full_address": "100 S University Ave, Little Rock, AR, USA"
  },
  {
    "name": "Chipotle Mexican Grill",
    "address": "11525 Cantrell Rd",
    "city": "Little Rock",
    "state": "AR",
    "zip": "",
    "latitude": 34.7931598,
    "longitude": -92.4015746,
    "full_address": "11525 Cantrell Rd, Little Rock, AR, USA"
  },
  {
    "name": "Chipotle Mexican Grill",
    "address": "12524 Chenal Pkwy",
    "city": "Little Rock",
    "state": "AR",
    "zip": "",
    "latitude": 34.7536952,
    "longitude": -92.4131666,
    "full_address": "12524 Chenal Pkwy, Little Rock, AR, USA"
  },
  {
    "name": "Chipotle Mexican Grill",
    "address": "3917 Mccain Blvd",
    "city": "North Little Rock",
    "state": "AR",
    "zip": "",
    "latitude": 34.7905981,
    "longitude": -92.2281729,
    "full_address": "3917 Mccain Blvd, North Little Rock, AR, USA"
  },
  {
    "name": "Chipotle Mexican Grill",
    "address": "3095 E Main St",
    "city": "Russellville",
    "state": "AR",
    "zip": "",
    "latitude": 35.2783529,
    "longitude": -93.0945462,
    "full_address": "3095 E Main St, Russellville, AR, USA"
  },
  {
    "name": "Chipotle Mexican Grill",
    "address": "3113 E Race Ave",
    "city": "Searcy",
    "state": "AR",
    "zip": "",
    "latitude": 35.2503892,
    "longitude": -91.6984231,
    "full_address": "3113 E Race Ave, Searcy, AR, USA"
  },
  {
    "name": "Chipotle Mexican Grill",
    "address": "9925 W Mcdowell Rd",
    "city": "Avondale",
    "state": "AZ",
    "zip": "",
    "latitude": 33.4644199,
    "longitude": -112.2733205,
    "full_address": "9925 W Mcdowell Rd, Avondale, AZ, USA"
  },
  {
    "name": "Chipotle Mexican Grill",
    "address": "19657 West Indian School Road",
    "city": "Buckeye",
    "state": "AZ",
    "zip": "",
    "latitude": 33.4936258,
    "longitude": -112.4816071,
    "full_address": "19657 West Indian School Road, Buckeye, AZ, USA"
  },
  {
    "name": "Chipotle Mexican Grill",
    "address": "944 S Watson Rd",
    "city": "Buckeye",
    "state": "AZ",
    "zip": "",
    "latitude": 33.4383105,
    "longitude": -112.5584545,
    "full_address": "944 S Watson Rd, Buckeye, AZ, USA"
  },
  {
    "name": "Chipotle Mexican Grill",
    "address": "1775 E Florence Blvd",
    "city": "Casa Grande",
    "state": "AZ",
    "zip": "",
    "latitude": 32.8790773,
    "longitude": -111.7112022,
    "full_address": "1775 E Florence Blvd, Casa Grande, AZ, USA"
  },
  {
    "name": "Chipotle Mexican Grill",
    "address": "5355 E Carefree Hwy",
    "city": "Cave Creek",
    "state": "AZ",
    "zip": "",
    "latitude": 33.798739,
    "longitude": -111.966359,
    "full_address": "5355 E Carefree Hwy, Cave Creek, AZ, USA"
  },
  {
    "name": "Chipotle Mexican Grill",
    "address": "1055 W Chandler Blvd",
    "city": "Chandler",
    "state": "AZ",
    "zip": "",
    "latitude": 33.3054702,
    "longitude": -111.8601303,
    "full_address": "1055 W Chandler Blvd, Chandler, AZ, USA"
  },
  {
    "name": "Chipotle Mexican Grill",
    "address": "2895 S Alma School Rd",
    "city": "Chandler",
    "state": "AZ",
    "zip": "",
    "latitude": 33.2639199,
    "longitude": -111.857512,
    "full_address": "2895 S Alma School Rd, Chandler, AZ, USA"
  },
  {
    "name": "Chipotle Mexican Grill",
    "address": "3395 W Chandler Blvd",
    "city": "Chandler",
    "state": "AZ",
    "zip": "",
    "latitude": 33.3051812,
    "longitude": -111.9000172,
    "full_address": "3395 W Chandler Blvd, Chandler, AZ, USA"
  },
  {
    "name": "Chipotle Mexican Grill",
    "address": "890 N 54Th St",
    "city": "Chandler",
    "state": "AZ",
    "zip": "",
    "latitude": 33.317377,
    "longitude": -111.9688319,
    "full_address": "890 N 54Th St, Chandler, AZ, USA"
  },
  {
    "name": "Chipotle Mexican Grill",
    "address": "611 S Main St",
    "city": "Cottonwood",
    "state": "AZ",
    "zip": "",
    "latitude": 34.7340468,
    "longitude": -112.0097965,
    "full_address": "611 S Main St, Cottonwood, AZ, USA"
  },
  {
    "name": "Chipotle Mexican Grill",
    "address": "1111 S Plaza Way",
    "city": "Flagstaff",
    "state": "AZ",
    "zip": "",
    "latitude": 35.1899345,
    "longitude": -111.6616951,
    "full_address": "1111 S Plaza Way, Flagstaff, AZ, USA"
  },
  {
    "name": "Chipotle Mexican Grill",
    "address": "4409 N Us Highway 89",
    "city": "Flagstaff",
    "state": "AZ",
    "zip": "",
    "latitude": null,
    "longitude": null,
    "full_address": "4409 N Us Highway 89, Flagstaff, AZ, USA"
  },
  {
    "name": "Chipotle Mexican Grill",
    "address": "1084 S Gilbert Rd",
    "city": "Gilbert",
    "state": "AZ",
    "zip": "",
    "latitude": 33.3299093,
    "longitude": -111.790908,
    "full_address": "1084 S Gilbert Rd, Gilbert, AZ, USA"
  },
  {
    "name": "Chipotle Mexican Grill",
    "address": "1546 N Cooper Rd",
    "city": "Gilbert",
    "state": "AZ",
    "zip": "",
    "latitude": 33.3779926,
    "longitude": -111.8076504,
    "full_address": "1546 N Cooper Rd, Gilbert, AZ, USA"
  },
  {
    "name": "Chipotle Mexican Grill",
    "address": "2224 E Williams Field Rd",
    "city": "Gilbert",
    "state": "AZ",
    "zip": "",
    "latitude": 33.308084,
    "longitude": -111.7427279,
    "full_address": "2224 E Williams Field Rd, Gilbert, AZ, USA"
  },
  {
    "name": "Chipotle Mexican Grill",
    "address": "3757 S Gilbert Rd",
    "city": "Gilbert",
    "state": "AZ",
    "zip": "",
    "latitude": 33.2818783,
    "longitude": -111.7886393,
    "full_address": "3757 S Gilbert Rd, Gilbert, AZ, USA"
  },
  {
    "name": "Chipotle Mexican Grill",
    "address": "3785 S Val Vista Dr",
    "city": "Gilbert",
    "state": "AZ",
    "zip": "",
    "latitude": 33.2819266,
    "longitude": -111.7554073,
    "full_address": "3785 S Val Vista Dr, Gilbert, AZ, USA"
  },
  {
    "name": "Chipotle Mexican Grill",
    "address": "20004 N 67Th Ave",
    "city": "Glendale",
    "state": "AZ",
    "zip": "",
    "latitude": 33.6658868,
    "longitude": -112.2035454,
    "full_address": "20004 N 67Th Ave, Glendale, AZ, USA"
  },
  {
    "name": "Chipotle Mexican Grill",
    "address": "5849 W Northern Ave",
    "city": "Glendale",
    "state": "AZ",
    "zip": "",
    "latitude": 33.5524781,
    "longitude": -112.1854286,
    "full_address": "5849 W Northern Ave, Glendale, AZ, USA"
  },
  {
    "name": "Chipotle Mexican Grill",
    "address": "5880 W Thunderbird Rd",
    "city": "Glendale",
    "state": "AZ",
    "zip": "",
    "latitude": 33.6113461,
    "longitude": -112.1845468,
    "full_address": "5880 W Thunderbird Rd, Glendale, AZ, USA"
  },
  {
    "name": "Chipotle Mexican Grill",
    "address": "7700 W Arrowhead Towne Ctr",
    "city": "Glendale",
    "state": "AZ",
    "zip": "",
    "latitude": 33.6420354,
    "longitude": -112.2270339,
    "full_address": "7700 W Arrowhead Towne Ctr, Glendale, AZ, USA"
  },
  {
    "name": "Chipotle Mexican Grill",
    "address": "9405 W Glendale Ave",
    "city": "Glendale",
    "state": "AZ",
    "zip": "",
    "latitude": 33.5368775,
    "longitude": -112.2611087,
    "full_address": "9405 W Glendale Ave, Glendale, AZ, USA"
  },
  {
    "name": "Chipotle Mexican Grill",
    "address": "1560 N Litchfield Rd",
    "city": "Goodyear",
    "state": "AZ",
    "zip": "",
    "latitude": 33.4638085,
    "longitude": -112.3586612,
    "full_address": "1560 N Litchfield Rd, Goodyear, AZ, USA"
  },
  {
    "name": "Chipotle Mexican Grill",
    "address": "655 S Cotton Ln",
    "city": "Goodyear",
    "state": "AZ",
    "zip": "",
    "latitude": 33.4405943,
    "longitude": -112.4258237,
    "full_address": "655 S Cotton Ln, Goodyear, AZ, USA"
  },
  {
    "name": "Chipotle Mexican Grill",
    "address": "18725 S Nogales Hwy",
    "city": "Green Valley",
    "state": "AZ",
    "zip": "",
    "latitude": null,
    "longitude": null,
    "full_address": "18725 S Nogales Hwy, Green Valley, AZ, USA"
  },
  {
    "name": "Chipotle Mexican Grill",
    "address": "3455 N Stockton Hill Rd",
    "city": "Kingman",
    "state": "AZ",
    "zip": "",
    "latitude": null,
    "longitude": null,
    "full_address": "3455 N Stockton Hill Rd, Kingman, AZ, USA"
  },
  {
    "name": "Chipotle Mexican Grill",
    "address": "55 Lake Havasu Ave S",
    "city": "Lake Havasu City",
    "state": "AZ",
    "zip": "",
    "latitude": 34.4730206,
    "longitude": -114.3430652,
    "full_address": "55 Lake Havasu Ave S, Lake Havasu City, AZ, USA"
  },
  {
    "name": "Chipotle Mexican Grill",
    "address": "5130 W Baseline Rd",
    "city": "Laveen",
    "state": "AZ",
    "zip": "",
    "latitude": 33.3795722,
    "longitude": -112.1689727,
    "full_address": "5130 W Baseline Rd, Laveen, AZ, USA"
  },
  {
    "name": "Chipotle Mexican Grill",
    "address": "5245 N Dysart Rd",
    "city": "Litchfield Park",
    "state": "AZ",
    "zip": "",
    "latitude": 33.4941627,
    "longitude": -112.3407978,
    "full_address": "5245 N Dysart Rd, Litchfield Park, AZ, USA"
  },
  {
    "name": "Chipotle Mexican Grill",
    "address": "5940 W Arizona Pavillions Dr",
    "city": "Marana",
    "state": "AZ",
    "zip": "",
    "latitude": 32.3549829,
    "longitude": -111.09163,
    "full_address": "5940 W Arizona Pavillions Dr, Marana, AZ, USA"
  },
  {
    "name": "Chipotle Mexican Grill",
    "address": "21423 N John Wayne Pkwy",
    "city": "Maricopa",
    "state": "AZ",
    "zip": "",
    "latitude": 33.0684694,
    "longitude": -112.0463792,
    "full_address": "21423 N John Wayne Pkwy, Maricopa, AZ, USA"
  },
  {
    "name": "Chipotle Mexican Grill",
    "address": "1229 E Mckellips Rd",
    "city": "Mesa",
    "state": "AZ",
    "zip": "",
    "latitude": 33.4510968,
    "longitude": -111.8029725,
    "full_address": "1229 E Mckellips Rd, Mesa, AZ, USA"
  },
  {
    "name": "Chipotle Mexican Grill",
    "address": "1335 S Alma School Rd",
    "city": "Mesa",
    "state": "AZ",
    "zip": "",
    "latitude": 33.3897947,
    "longitude": -111.8568469,
    "full_address": "1335 S Alma School Rd, Mesa, AZ, USA"
  },
  {
    "name": "Chipotle Mexican Grill",
    "address": "1411 S Power Rd",
    "city": "Mesa",
    "state": "AZ",
    "zip": "",
    "latitude": 33.3899804,
    "longitude": -111.6840138,
    "full_address": "1411 S Power Rd, Mesa, AZ, USA"
  },
  {
    "name": "Chipotle Mexican Grill",
    "address": "1955 S Signal Butte Rd",
    "city": "Mesa",
    "state": "AZ",
    "zip": "",
    "latitude": 33.3793112,
    "longitude": -111.6009811,
    "full_address": "1955 S Signal Butte Rd, Mesa, AZ, USA"
  },
  {
    "name": "Chipotle Mexican Grill",
    "address": "2849 N Power Rd",
    "city": "Mesa",
    "state": "AZ",
    "zip": "",
    "latitude": 33.4678983,
    "longitude": -111.6834389,
    "full_address": "2849 N Power Rd, Mesa, AZ, USA"
  },
  {
    "name": "Chipotle Mexican Grill",
    "address": "3440 E Baseline Rd",
    "city": "Mesa",
    "state": "AZ",
    "zip": "",
    "latitude": 33.3796586,
    "longitude": -111.7559255,
    "full_address": "3440 E Baseline Rd, Mesa, AZ, USA"
  },
  {
    "name": "Chipotle Mexican Grill",
    "address": "4984 S Power Rd",
    "city": "Mesa",
    "state": "AZ",
    "zip": "",
    "latitude": 33.3255079,
    "longitude": -111.6878009,
    "full_address": "4984 S Power Rd, Mesa, AZ, USA"
  },
  {
    "name": "Chipotle Mexican Grill",
    "address": "9259 E Ray Road",
    "city": "Mesa",
    "state": "AZ",
    "zip": "",
    "latitude": 33.3208829,
    "longitude": -111.6335913,
    "full_address": "9259 E Ray Road, Mesa, AZ, USA"
  },
  {
    "name": "Chipotle Mexican Grill",
    "address": "337 W Mariposa Rd",
    "city": "Nogales",
    "state": "AZ",
    "zip": "",
    "latitude": 31.3663648,
    "longitude": -110.9394444,
    "full_address": "337 W Mariposa Rd, Nogales, AZ, USA"
  },
  {
    "name": "Chipotle Mexican Grill",
    "address": "10604 N Oracle Rd",
    "city": "Oro Valley",
    "state": "AZ",
    "zip": "",
    "latitude": 32.3987191,
    "longitude": -110.9558496,
    "full_address": "10604 N Oracle Rd, Oro Valley, AZ, USA"
  },
  {
    "name": "Chipotle Mexican Grill",
    "address": "108 S Beeline Hwy",
    "city": "Payson",
    "state": "AZ",
    "zip": "",
    "latitude": 34.2393973,
    "longitude": -111.3236178,
    "full_address": "108 S Beeline Hwy, Payson, AZ, USA"
  },
  {
    "name": "Chipotle Mexican Grill",
    "address": "16680 N 83Rd Ave",
    "city": "Peoria",
    "state": "AZ",
    "zip": "",
    "latitude": 33.6363961,
    "longitude": -112.2341127,
    "full_address": "16680 N 83Rd Ave, Peoria, AZ, USA"
  },
  {
    "name": "Chipotle Mexican Grill",
    "address": "28576 N El Mirage Rd",
    "city": "Peoria",
    "state": "AZ",
    "zip": "",
    "latitude": 33.7417052,
    "longitude": -112.3222863,
    "full_address": "28576 N El Mirage Rd, Peoria, AZ, USA"
  },
  {
    "name": "Chipotle Mexican Grill",
    "address": "9940 W Happy Valley Pkwy",
    "city": "Peoria",
    "state": "AZ",
    "zip": "",
    "latitude": 33.7114935,
    "longitude": -112.2731832,
    "full_address": "9940 W Happy Valley Pkwy, Peoria, AZ, USA"
  },
  {
    "name": "Chipotle Mexican Grill",
    "address": "11 W Washington St",
    "city": "Phoenix",
    "state": "AZ",
    "zip": "",
    "latitude": 33.4480419,
    "longitude": -112.0744852,
    "full_address": "11 W Washington St, Phoenix, AZ, USA"
  },
  {
    "name": "Chipotle Mexican Grill",
    "address": "1515 N 7Th Ave",
    "city": "Phoenix",
    "state": "AZ",
    "zip": "",
    "latitude": 33.465545,
    "longitude": -112.0821682,
    "full_address": "1515 N 7Th Ave, Phoenix, AZ, USA"
  },
  {
    "name": "Chipotle Mexican Grill",
    "address": "1660 E Camelback Rd",
    "city": "Phoenix",
    "state": "AZ",
    "zip": "",
    "latitude": 33.5103766,
    "longitude": -112.0462008,
    "full_address": "1660 E Camelback Rd, Phoenix, AZ, USA"
  },
  {
    "name": "Chipotle Mexican Grill",
    "address": "16635 N Tatum Blvd",
    "city": "Phoenix",
    "state": "AZ",
    "zip": "",
    "latitude": 33.6382079,
    "longitude": -111.9773075,
    "full_address": "16635 N Tatum Blvd, Phoenix, AZ, USA"
  },
  {
    "name": "Chipotle Mexican Grill",
    "address": "1818 W Bethany Home Rd",
    "city": "Phoenix",
    "state": "AZ",
    "zip": "",
    "latitude": 33.5241454,
    "longitude": -112.0985991,
    "full_address": "1818 W Bethany Home Rd, Phoenix, AZ, USA"
  },
  {
    "name": "Chipotle Mexican Grill",
    "address": "1838 W Baseline Rd",
    "city": "Phoenix",
    "state": "AZ",
    "zip": "",
    "latitude": 33.3782137,
    "longitude": -112.0978962,
    "full_address": "1838 W Baseline Rd, Phoenix, AZ, USA"
  },
  {
    "name": "Chipotle Mexican Grill",
    "address": "21001 N Tatum Blvd",
    "city": "Phoenix",
    "state": "AZ",
    "zip": "",
    "latitude": 33.6761762,
    "longitude": -111.973331,
    "full_address": "21001 N Tatum Blvd, Phoenix, AZ, USA"
  },
  {
    "name": "Chipotle Mexican Grill",
    "address": "2415 E Baseline Rd",
    "city": "Phoenix",
    "state": "AZ",
    "zip": "",
    "latitude": 33.3770988,
    "longitude": -112.0299428,
    "full_address": "2415 E Baseline Rd, Phoenix, AZ, USA"
  },
  {
    "name": "Chipotle Mexican Grill",
    "address": "2450 W Bell Rd",
    "city": "Phoenix",
    "state": "AZ",
    "zip": "",
    "latitude": 33.6400463,
    "longitude": -112.1115632,
    "full_address": "2450 W Bell Rd, Phoenix, AZ, USA"
  },
  {
    "name": "Chipotle Mexican Grill",
    "address": "2470 W Happy Valley Rd",
    "city": "Phoenix",
    "state": "AZ",
    "zip": "",
    "latitude": 33.7106859,
    "longitude": -112.10959,
    "full_address": "2470 W Happy Valley Rd, Phoenix, AZ, USA"
  },
  {
    "name": "Chipotle Mexican Grill",
    "address": "3009 W Agua Fria Fwy",
    "city": "Phoenix",
    "state": "AZ",
    "zip": "",
    "latitude": null,
    "longitude": null,
    "full_address": "3009 W Agua Fria Fwy, Phoenix, AZ, USA"
  },
  {
    "name": "Chipotle Mexican Grill",
    "address": "3039 W Peoria Ave",
    "city": "Phoenix",
    "state": "AZ",
    "zip": "",
    "latitude": 33.5814046,
    "longitude": -112.1251727,
    "full_address": "3039 W Peoria Ave, Phoenix, AZ, USA"
  },
  {
    "name": "Chipotle Mexican Grill",
    "address": "3125 E Indian School Rd",
    "city": "Phoenix",
    "state": "AZ",
    "zip": "",
    "latitude": 33.49426,
    "longitude": -112.0146,
    "full_address": "3125 E Indian School Rd, Phoenix, AZ, USA"
  },
  {
    "name": "Chipotle Mexican Grill",
    "address": "3185 E Bell Rd",
    "city": "Phoenix",
    "state": "AZ",
    "zip": "",
    "latitude": 33.6405143,
    "longitude": -112.0139104,
    "full_address": "3185 E Bell Rd, Phoenix, AZ, USA"
  },
  {
    "name": "Chipotle Mexican Grill",
    "address": "4111 E Chandler Blvd",
    "city": "Phoenix",
    "state": "AZ",
    "zip": "",
    "latitude": 33.3047913,
    "longitude": -111.9936201,
    "full_address": "4111 E Chandler Blvd, Phoenix, AZ, USA"
  },
  {
    "name": "Chipotle Mexican Grill",
    "address": "425 E Bell Rd",
    "city": "Phoenix",
    "state": "AZ",
    "zip": "",
    "latitude": 33.6398892,
    "longitude": -112.0674592,
    "full_address": "425 E Bell Rd, Phoenix, AZ, USA"
  },
  {
    "name": "Chipotle Mexican Grill",
    "address": "4423 E Thomas Road",
    "city": "Phoenix",
    "state": "AZ",
    "zip": "",
    "latitude": 33.4798839,
    "longitude": -111.986237,
    "full_address": "4423 E Thomas Road, Phoenix, AZ, USA"
  },
  {
    "name": "Chipotle Mexican Grill",
    "address": "4622 E Cactus Rd",
    "city": "Phoenix",
    "state": "AZ",
    "zip": "",
    "latitude": 33.599518,
    "longitude": -111.9817225,
    "full_address": "4622 E Cactus Rd, Phoenix, AZ, USA"
  },
  {
    "name": "Chipotle Mexican Grill",
    "address": "4705 E Broadway Rd",
    "city": "Phoenix",
    "state": "AZ",
    "zip": "",
    "latitude": 33.407038,
    "longitude": -111.9796774,
    "full_address": "4705 E Broadway Rd, Phoenix, AZ, USA"
  },
  {
    "name": "Chipotle Mexican Grill",
    "address": "52 E Camelback Road",
    "city": "Phoenix",
    "state": "AZ",
    "zip": "",
    "latitude": 33.5096343,
    "longitude": -112.0716085,
    "full_address": "52 E Camelback Road, Phoenix, AZ, USA"
  },
  {
    "name": "Chipotle Mexican Grill",
    "address": "7427 W Thomas Rd",
    "city": "Phoenix",
    "state": "AZ",
    "zip": "",
    "latitude": 33.4797405,
    "longitude": -112.2200698,
    "full_address": "7427 W Thomas Rd, Phoenix, AZ, USA"
  },
  {
    "name": "Chipotle Mexican Grill",
    "address": "5791 E State Route 69",
    "city": "Prescott Valley",
    "state": "AZ",
    "zip": "",
    "latitude": null,
    "longitude": null,
    "full_address": "5791 E State Route 69, Prescott Valley, AZ, USA"
  },
  {
    "name": "Chipotle Mexican Grill",
    "address": "351 N Montezuma St",
    "city": "Prescott",
    "state": "AZ",
    "zip": "",
    "latitude": 34.5466612,
    "longitude": -112.4693197,
    "full_address": "351 N Montezuma St, Prescott, AZ, USA"
  },
  {
    "name": "Chipotle Mexican Grill",
    "address": "170 W Ocotillo",
    "city": "Queen Creek",
    "state": "AZ",
    "zip": "",
    "latitude": 33.2494818,
    "longitude": -111.5670831,
    "full_address": "170 W Ocotillo, Queen Creek, AZ, USA"
  },
  {
    "name": "Chipotle Mexican Grill",
    "address": "21172 S Ellsworth Loop Rd",
    "city": "Queen Creek",
    "state": "AZ",
    "zip": "",
    "latitude": 33.2561199,
    "longitude": -111.639412,
    "full_address": "21172 S Ellsworth Loop Rd, Queen Creek, AZ, USA"
  },
  {
    "name": "Chipotle Mexican Grill",
    "address": "1371 W Hunt Hwy",
    "city": "San Tan Valley",
    "state": "AZ",
    "zip": "",
    "latitude": 33.1745804,
    "longitude": -111.5777169,
    "full_address": "1371 W Hunt Hwy, San Tan Valley, AZ, USA"
  },
  {
    "name": "Chipotle Mexican Grill",
    "address": "11015 N Scottsdale Rd",
    "city": "Scottsdale",
    "state": "AZ",
    "zip": "",
    "latitude": 33.5860284,
    "longitude": -111.9255705,
    "full_address": "11015 N Scottsdale Rd, Scottsdale, AZ, USA"
  },
  {
    "name": "Chipotle Mexican Grill",
    "address": "15035 N Thompson Peak Pkwy",
    "city": "Scottsdale",
    "state": "AZ",
    "zip": "",
    "latitude": 33.6223813,
    "longitude": -111.8739303,
    "full_address": "15035 N Thompson Peak Pkwy, Scottsdale, AZ, USA"
  },
  {
    "name": "Chipotle Mexican Grill",
    "address": "15425 N Scottsdale Rd",
    "city": "Scottsdale",
    "state": "AZ",
    "zip": "",
    "latitude": 33.6263996,
    "longitude": -111.924862,
    "full_address": "15425 N Scottsdale Rd, Scottsdale, AZ, USA"
  },
  {
    "name": "Chipotle Mexican Grill",
    "address": "20851 N Scottsdale Rd",
    "city": "Scottsdale",
    "state": "AZ",
    "zip": "",
    "latitude": 33.6761752,
    "longitude": -111.924104,
    "full_address": "20851 N Scottsdale Rd, Scottsdale, AZ, USA"
  },
  {
    "name": "Chipotle Mexican Grill",
    "address": "2805 N Scottsdale Rd",
    "city": "Scottsdale",
    "state": "AZ",
    "zip": "",
    "latitude": 33.4792056,
    "longitude": -111.9257824,
    "full_address": "2805 N Scottsdale Rd, Scottsdale, AZ, USA"
  },
  {
    "name": "Chipotle Mexican Grill",
    "address": "4513 N Scottsdale Rd",
    "city": "Scottsdale",
    "state": "AZ",
    "zip": "",
    "latitude": 33.5032637,
    "longitude": -111.9258383,
    "full_address": "4513 N Scottsdale Rd, Scottsdale, AZ, USA"
  },
  {
    "name": "Chipotle Mexican Grill",
    "address": "7014 E Camelback Rd",
    "city": "Scottsdale",
    "state": "AZ",
    "zip": "",
    "latitude": 33.5029399,
    "longitude": -111.9293996,
    "full_address": "7014 E Camelback Rd, Scottsdale, AZ, USA"
  },
  {
    "name": "Chipotle Mexican Grill",
    "address": "8099 E Mcdowell Rd",
    "city": "Scottsdale",
    "state": "AZ",
    "zip": "",
    "latitude": 33.4652985,
    "longitude": -111.9074364,
    "full_address": "8099 E Mcdowell Rd, Scottsdale, AZ, USA"
  },
  {
    "name": "Chipotle Mexican Grill",
    "address": "9010 E Talking Stick Way",
    "city": "Scottsdale",
    "state": "AZ",
    "zip": "",
    "latitude": 33.5388558,
    "longitude": -111.8875709,
    "full_address": "9010 E Talking Stick Way, Scottsdale, AZ, USA"
  },
  {
    "name": "Chipotle Mexican Grill",
    "address": "9301 E Shea Blvd",
    "city": "Scottsdale",
    "state": "AZ",
    "zip": "",
    "latitude": 33.5802311,
    "longitude": -111.8809575,
    "full_address": "9301 E Shea Blvd, Scottsdale, AZ, USA"
  },
  {
    "name": "Chipotle Mexican Grill",
    "address": "361 Forest Rd",
    "city": "Sedona",
    "state": "AZ",
    "zip": "",
    "latitude": 34.8683957,
    "longitude": -111.7620519,
    "full_address": "361 Forest Rd, Sedona, AZ, USA"
  },
  {
    "name": "Chipotle Mexican Grill",
    "address": "480 N Highway 90 Byp",
    "city": "Sierra Vista",
    "state": "AZ",
    "zip": "",
    "latitude": null,
    "longitude": null,
    "full_address": "480 N Highway 90 Byp, Sierra Vista, AZ, USA"
  },
  {
    "name": "Chipotle Mexican Grill",
    "address": "13869 W Bell Rd",
    "city": "Surprise",
    "state": "AZ",
    "zip": "",
    "latitude": 33.6382777,
    "longitude": -112.358851,
    "full_address": "13869 W Bell Rd, Surprise, AZ, USA"
  },
  {
    "name": "Chipotle Mexican Grill",
    "address": "16810 W Waddell Rd",
    "city": "Surprise",
    "state": "AZ",
    "zip": "",
    "latitude": 33.6104649,
    "longitude": -112.4206014,
    "full_address": "16810 W Waddell Rd, Surprise, AZ, USA"
  },
  {
    "name": "Chipotle Mexican Grill",
    "address": "1038 S Mill Ave",
    "city": "Tempe",
    "state": "AZ",
    "zip": "",
    "latitude": 33.4179575,
    "longitude": -111.9404169,
    "full_address": "1038 S Mill Ave, Tempe, AZ, USA"
  },
  {
    "name": "Chipotle Mexican Grill",
    "address": "1655 W Elliot Rd",
    "city": "Tempe",
    "state": "AZ",
    "zip": "",
    "latitude": 33.3486061,
    "longitude": -111.9654318,
    "full_address": "1655 W Elliot Rd, Tempe, AZ, USA"
  },
  {
    "name": "Chipotle Mexican Grill",
    "address": "2000 E Rio Salado Pkwy",
    "city": "Tempe",
    "state": "AZ",
    "zip": "",
    "latitude": 33.4298345,
    "longitude": -111.908916,
    "full_address": "2000 E Rio Salado Pkwy, Tempe, AZ, USA"
  },
  {
    "name": "Chipotle Mexican Grill",
    "address": "2020 E Elliot Rd",
    "city": "Tempe",
    "state": "AZ",
    "zip": "",
    "latitude": 33.3497706,
    "longitude": -111.901591,
    "full_address": "2020 E Elliot Rd, Tempe, AZ, USA"
  },
  {
    "name": "Chipotle Mexican Grill",
    "address": "815 E Baseline Rd",
    "city": "Tempe",
    "state": "AZ",
    "zip": "",
    "latitude": 33.3778918,
    "longitude": -111.9295128,
    "full_address": "815 E Baseline Rd, Tempe, AZ, USA"
  },
  {
    "name": "Chipotle Mexican Grill",
    "address": "1202 W Irvington Rd",
    "city": "Tucson",
    "state": "AZ",
    "zip": "",
    "latitude": 32.1639514,
    "longitude": -110.9896046,
    "full_address": "1202 W Irvington Rd, Tucson, AZ, USA"
  },
  {
    "name": "Chipotle Mexican Grill",
    "address": "1903 E Speedway Blvd",
    "city": "Tucson",
    "state": "AZ",
    "zip": "",
    "latitude": 32.2365064,
    "longitude": -110.943451,
    "full_address": "1903 E Speedway Blvd, Tucson, AZ, USA"
  },
  {
    "name": "Chipotle Mexican Grill",
    "address": "235 W Wetmore Rd",
    "city": "Tucson",
    "state": "AZ",
    "zip": "",
    "latitude": 32.2861668,
    "longitude": -110.9755793,
    "full_address": "235 W Wetmore Rd, Tucson, AZ, USA"
  },
  {
    "name": "Chipotle Mexican Grill",
    "address": "3055 N Campbell Ave",
    "city": "Tucson",
    "state": "AZ",
    "zip": "",
    "latitude": 32.2623689,
    "longitude": -110.944407,
    "full_address": "3055 N Campbell Ave, Tucson, AZ, USA"
  },
  {
    "name": "Chipotle Mexican Grill",
    "address": "3510 S Kino Pkwy",
    "city": "Tucson",
    "state": "AZ",
    "zip": "",
    "latitude": 32.1847425,
    "longitude": -110.9444999,
    "full_address": "3510 S Kino Pkwy, Tucson, AZ, USA"
  },
  {
    "name": "Chipotle Mexican Grill",
    "address": "4857 E Grant Rd",
    "city": "Tucson",
    "state": "AZ",
    "zip": "",
    "latitude": 32.2501295,
    "longitude": -110.8908884,
    "full_address": "4857 E Grant Rd, Tucson, AZ, USA"
  },
  {
    "name": "Chipotle Mexican Grill",
    "address": "5353 E Broadway Blvd",
    "city": "Tucson",
    "state": "AZ",
    "zip": "",
    "latitude": 32.2217195,
    "longitude": -110.8782278,
    "full_address": "5353 E Broadway Blvd, Tucson, AZ, USA"
  },
  {
    "name": "Chipotle Mexican Grill",
    "address": "6501 E Grant Rd",
    "city": "Tucson",
    "state": "AZ",
    "zip": "",
    "latitude": 32.2502693,
    "longitude": -110.8515739,
    "full_address": "6501 E Grant Rd, Tucson, AZ, USA"
  },
  {
    "name": "Chipotle Mexican Grill",
    "address": "7555 N La Cholla Blvd",
    "city": "Tucson",
    "state": "AZ",
    "zip": "",
    "latitude": 32.3435598,
    "longitude": -111.013406,
    "full_address": "7555 N La Cholla Blvd, Tucson, AZ, USA"
  },
  {
    "name": "Chipotle Mexican Grill",
    "address": "905 E University Blvd",
    "city": "Tucson",
    "state": "AZ",
    "zip": "",
    "latitude": 32.2318616,
    "longitude": -110.9575778,
    "full_address": "905 E University Blvd, Tucson, AZ, USA"
  },
  {
    "name": "Chipotle Mexican Grill",
    "address": "9484 E 22Nd St",
    "city": "Tucson",
    "state": "AZ",
    "zip": "",
    "latitude": 32.2064121,
    "longitude": -110.7909343,
    "full_address": "9484 E 22Nd St, Tucson, AZ, USA"
  },
  {
    "name": "Chipotle Mexican Grill",
    "address": "1525 S Yuma Palms Pkwy",
    "city": "Yuma",
    "state": "AZ",
    "zip": "",
    "latitude": 32.6997743,
    "longitude": -114.6010546,
    "full_address": "1525 S Yuma Palms Pkwy, Yuma, AZ, USA"
  },
  {
    "name": "Chipotle Mexican Grill",
    "address": "3080 S 4Th Ave",
    "city": "Yuma",
    "state": "AZ",
    "zip": "",
    "latitude": 32.671592,
    "longitude": -114.6244334,
    "full_address": "3080 S 4Th Ave, Yuma, AZ, USA"
  },
  {
    "name": "Chipotle Mexican Grill",
    "address": "2314 S Shore Ctr",
    "city": "Alameda",
    "state": "CA",
    "zip": "",
    "latitude": 37.7561211,
    "longitude": -122.250083,
    "full_address": "2314 S Shore Ctr, Alameda, CA, USA"
  },
  {
    "name": "Chipotle Mexican Grill",
    "address": "2610 5Th St",
    "city": "Alameda",
    "state": "CA",
    "zip": "",
    "latitude": 37.7861044,
    "longitude": -122.2812313,
    "full_address": "2610 5Th St, Alameda, CA, USA"
  },
  {
    "name": "Chipotle Mexican Grill",
    "address": "2121 W Main St",
    "city": "Alhambra",
    "state": "CA",
    "zip": "",
    "latitude": 34.0923999,
    "longitude": -118.1456302,
    "full_address": "2121 W Main St, Alhambra, CA, USA"
  },
  {
    "name": "Chipotle Mexican Grill",
    "address": "26661 Aliso Creek Rd",
    "city": "Aliso Viejo",
    "state": "CA",
    "zip": "",
    "latitude": 33.5770353,
    "longitude": -117.7253492,
    "full_address": "26661 Aliso Creek Rd, Aliso Viejo, CA, USA"
  },
  {
    "name": "Chipotle Mexican Grill",
    "address": "2002 E Lincoln Ave",
    "city": "Anaheim",
    "state": "CA",
    "zip": "",
    "latitude": 33.8395632,
    "longitude": -117.8886514,
    "full_address": "2002 E Lincoln Ave, Anaheim, CA, USA"
  },
  {
    "name": "Chipotle Mexican Grill",
    "address": "2085 E Katella Ave",
    "city": "Anaheim",
    "state": "CA",
    "zip": "",
    "latitude": 33.80392,
    "longitude": -117.8871678,
    "full_address": "2085 E Katella Ave, Anaheim, CA, USA"
  },
  {
    "name": "Chipotle Mexican Grill",
    "address": "5631 E La Palma Ave",
    "city": "Anaheim",
    "state": "CA",
    "zip": "",
    "latitude": 33.860555,
    "longitude": -117.792262,
    "full_address": "5631 E La Palma Ave, Anaheim, CA, USA"
  },
  {
    "name": "Chipotle Mexican Grill",
    "address": "8182 E Santa Ana Canyon Rd",
    "city": "Anaheim",
    "state": "CA",
    "zip": "",
    "latitude": 33.8422781,
    "longitude": -117.8312654,
    "full_address": "8182 E Santa Ana Canyon Rd, Anaheim, CA, USA"
  },
  {
    "name": "Chipotle Mexican Grill",
    "address": "927 S Euclid St",
    "city": "Anaheim",
    "state": "CA",
    "zip": "",
    "latitude": 33.8187433,
    "longitude": -117.941765,
    "full_address": "927 S Euclid St, Anaheim, CA, USA"
  },
  {
    "name": "Chipotle Mexican Grill",
    "address": "19179 Bear Valley Rd",
    "city": "Apple Valley",
    "state": "CA",
    "zip": "",
    "latitude": 34.4706483,
    "longitude": -117.2457262,
    "full_address": "19179 Bear Valley Rd, Apple Valley, CA, USA"
  },
  {
    "name": "Chipotle Mexican Grill",
    "address": "400 S Baldwin Ave",
    "city": "Arcadia",
    "state": "CA",
    "zip": "",
    "latitude": 34.1392569,
    "longitude": -118.0529797,
    "full_address": "400 S Baldwin Ave, Arcadia, CA, USA"
  },
  {
    "name": "Chipotle Mexican Grill",
    "address": "1229 E Grand Ave",
    "city": "Arroyo Grande",
    "state": "CA",
    "zip": "",
    "latitude": 35.1202207,
    "longitude": -120.6019313,
    "full_address": "1229 E Grand Ave, Arroyo Grande, CA, USA"
  },
  {
    "name": "Chipotle Mexican Grill",
    "address": "6435 Morro Rd",
    "city": "Atascadero",
    "state": "CA",
    "zip": "",
    "latitude": 35.4472115,
    "longitude": -120.7045496,
    "full_address": "6435 Morro Rd, Atascadero, CA, USA"
  },
  {
    "name": "Chipotle Mexican Grill",
    "address": "2845 Bell Rd",
    "city": "Auburn",
    "state": "CA",
    "zip": "",
    "latitude": 38.941075,
    "longitude": -121.0961174,
    "full_address": "2845 Bell Rd, Auburn, CA, USA"
  },
  {
    "name": "Chipotle Mexican Grill",
    "address": "1250 W Foothill Blvd",
    "city": "Azusa",
    "state": "CA",
    "zip": "",
    "latitude": 34.1332358,
    "longitude": -117.9269981,
    "full_address": "1250 W Foothill Blvd, Azusa, CA, USA"
  },
  {
    "name": "Chipotle Mexican Grill",
    "address": "860 E Alosta Ave",
    "city": "Azusa",
    "state": "CA",
    "zip": "",
    "latitude": 34.1282241,
    "longitude": -117.8915446,
    "full_address": "860 E Alosta Ave, Azusa, CA, USA"
  },
  {
    "name": "Chipotle Mexican Grill",
    "address": "10510 Stockdale Hwy",
    "city": "Bakersfield",
    "state": "CA",
    "zip": "",
    "latitude": 35.3544554,
    "longitude": -119.0935673,
    "full_address": "10510 Stockdale Hwy, Bakersfield, CA, USA"
  },
  {
    "name": "Chipotle Mexican Grill",
    "address": "2630 Mount Vernon Ave",
    "city": "Bakersfield",
    "state": "CA",
    "zip": "",
    "latitude": 35.3927107,
    "longitude": -118.9675745,
    "full_address": "2630 Mount Vernon Ave, Bakersfield, CA, USA"
  },
  {
    "name": "Chipotle Mexican Grill",
    "address": "2701 Ming Ave",
    "city": "Bakersfield",
    "state": "CA",
    "zip": "",
    "latitude": 35.3373638,
    "longitude": -119.0357097,
    "full_address": "2701 Ming Ave, Bakersfield, CA, USA"
  },
  {
    "name": "Chipotle Mexican Grill",
    "address": "3345 Buena Vista Rd",
    "city": "Bakersfield",
    "state": "CA",
    "zip": "",
    "latitude": 35.3274833,
    "longitude": -119.1280537,
    "full_address": "3345 Buena Vista Rd, Bakersfield, CA, USA"
  },
  {
    "name": "Chipotle Mexican Grill",
    "address": "4580 Coffee Rd",
    "city": "Bakersfield",
    "state": "CA",
    "zip": "",
    "latitude": 35.4011626,
    "longitude": -119.091709,
    "full_address": "4580 Coffee Rd, Bakersfield, CA, USA"
  },
  {
    "name": "Chipotle Mexican Grill",
    "address": "4950 Stockdale Hwy",
    "city": "Bakersfield",
    "state": "CA",
    "zip": "",
    "latitude": 35.3545423,
    "longitude": -119.0569784,
    "full_address": "4950 Stockdale Hwy, Bakersfield, CA, USA"
  },
  {
    "name": "Chipotle Mexican Grill",
    "address": "5321 Gosford Rd",
    "city": "Bakersfield",
    "state": "CA",
    "zip": "",
    "latitude": 35.3065496,
    "longitude": -119.0922588,
    "full_address": "5321 Gosford Rd, Bakersfield, CA, USA"
  },
  {
    "name": "Chipotle Mexican Grill",
    "address": "9723 Panama Ln",
    "city": "Bakersfield",
    "state": "CA",
    "zip": "",
    "latitude": 35.2960939,
    "longitude": -119.1102685,
    "full_address": "9723 Panama Ln, Bakersfield, CA, USA"
  },
  {
    "name": "Chipotle Mexican Grill",
    "address": "3939 Crenshaw Blvd",
    "city": "Baldwin Hills",
    "state": "CA",
    "zip": "",
    "latitude": 34.0133217,
    "longitude": -118.336631,
    "full_address": "3939 Crenshaw Blvd, Baldwin Hills, CA, USA"
  },
  {
    "name": "Chipotle Mexican Grill",
    "address": "13916 Garvey Ave",
    "city": "Baldwin Park",
    "state": "CA",
    "zip": "",
    "latitude": 34.0695194,
    "longitude": -117.9720709,
    "full_address": "13916 Garvey Ave, Baldwin Park, CA, USA"
  },
  {
    "name": "Chipotle Mexican Grill",
    "address": "300 S Highland Springs Ave",
    "city": "Banning",
    "state": "CA",
    "zip": "",
    "latitude": 33.9241376,
    "longitude": -116.946364,
    "full_address": "300 S Highland Springs Ave, Banning, CA, USA"
  },
  {
    "name": "Chipotle Mexican Grill",
    "address": "2590 High Point Pkwy",
    "city": "Barstow",
    "state": "CA",
    "zip": "",
    "latitude": 34.8527791,
    "longitude": -117.082766,
    "full_address": "2590 High Point Pkwy, Barstow, CA, USA"
  },
  {
    "name": "Chipotle Mexican Grill",
    "address": "1050 Gilman St",
    "city": "Berkeley",
    "state": "CA",
    "zip": "",
    "latitude": 37.8796761,
    "longitude": -122.296452,
    "full_address": "1050 Gilman St, Berkeley, CA, USA"
  },
  {
    "name": "Chipotle Mexican Grill",
    "address": "2225 Shattuck Ave",
    "city": "Berkeley",
    "state": "CA",
    "zip": "",
    "latitude": 37.8688658,
    "longitude": -122.2675135,
    "full_address": "2225 Shattuck Ave, Berkeley, CA, USA"
  },
  {
    "name": "Chipotle Mexican Grill",
    "address": "2311 Telegraph Ave",
    "city": "Berkeley",
    "state": "CA",
    "zip": "",
    "latitude": 37.868371,
    "longitude": -122.2589578,
    "full_address": "2311 Telegraph Ave, Berkeley, CA, USA"
  },
  {
    "name": "Chipotle Mexican Grill",
    "address": "244 S Beverly Dr",
    "city": "Beverly Hills",
    "state": "CA",
    "zip": "",
    "latitude": 34.0633238,
    "longitude": -118.3988293,
    "full_address": "244 S Beverly Dr, Beverly Hills, CA, USA"
  },
  {
    "name": "Chipotle Mexican Grill",
    "address": "100 S Lovekin Blvd",
    "city": "Blythe",
    "state": "CA",
    "zip": "",
    "latitude": 33.609877,
    "longitude": -114.605229,
    "full_address": "100 S Lovekin Blvd, Blythe, CA, USA"
  },
  {
    "name": "Chipotle Mexican Grill",
    "address": "1065 Brea Mall",
    "city": "Brea",
    "state": "CA",
    "zip": "",
    "latitude": 33.9168193,
    "longitude": -117.8831856,
    "full_address": "1065 Brea Mall, Brea, CA, USA"
  },
  {
    "name": "Chipotle Mexican Grill",
    "address": "477 S Associated Rd",
    "city": "Brea",
    "state": "CA",
    "zip": "",
    "latitude": 33.9117449,
    "longitude": -117.8820536,
    "full_address": "477 S Associated Rd, Brea, CA, USA"
  },
  {
    "name": "Chipotle Mexican Grill",
    "address": "5401 Lone Tree Way",
    "city": "Brentwood",
    "state": "CA",
    "zip": "",
    "latitude": 37.9612794,
    "longitude": -121.7487843,
    "full_address": "5401 Lone Tree Way, Brentwood, CA, USA"
  },
  {
    "name": "Chipotle Mexican Grill",
    "address": "7580 Brentwood Blvd",
    "city": "Brentwood",
    "state": "CA",
    "zip": "",
    "latitude": 37.9461896,
    "longitude": -121.696055,
    "full_address": "7580 Brentwood Blvd, Brentwood, CA, USA"
  },
  {
    "name": "Chipotle Mexican Grill",
    "address": "5976 Orangethorpe Ave",
    "city": "Buena Park",
    "state": "CA",
    "zip": "",
    "latitude": 33.85833,
    "longitude": -118.0305358,
    "full_address": "5976 Orangethorpe Ave, Buena Park, CA, USA"
  },
  {
    "name": "Chipotle Mexican Grill",
    "address": "135 E Palm Ave",
    "city": "Burbank",
    "state": "CA",
    "zip": "",
    "latitude": 34.1819408,
    "longitude": -118.3113691,
    "full_address": "135 E Palm Ave, Burbank, CA, USA"
  },
  {
    "name": "Chipotle Mexican Grill",
    "address": "4012 W Riverside Dr",
    "city": "Burbank",
    "state": "CA",
    "zip": "",
    "latitude": null,
    "longitude": null,
    "full_address": "4012 W Riverside Dr, Burbank, CA, USA"
  },
  {
    "name": "Chipotle Mexican Grill",
    "address": "48557 Morongo Trl",
    "city": "Cabazon",
    "state": "CA",
    "zip": "",
    "latitude": null,
    "longitude": null,
    "full_address": "48557 Morongo Trl, Cabazon, CA, USA"
  },
  {
    "name": "Chipotle Mexican Grill",
    "address": "660 Ventura Blvd",
    "city": "Camarillo",
    "state": "CA",
    "zip": "",
    "latitude": 34.2171588,
    "longitude": -119.0656016,
    "full_address": "660 Ventura Blvd, Camarillo, CA, USA"
  },
  {
    "name": "Chipotle Mexican Grill",
    "address": "1815 S Bascom Ave",
    "city": "Campbell",
    "state": "CA",
    "zip": "",
    "latitude": 37.2909396,
    "longitude": -121.9320206,
    "full_address": "1815 S Bascom Ave, Campbell, CA, USA"
  },
  {
    "name": "Chipotle Mexican Grill",
    "address": "6600 Topanga Canyon Blvd",
    "city": "Canoga Park",
    "state": "CA",
    "zip": "",
    "latitude": 34.1911898,
    "longitude": -118.6024518,
    "full_address": "6600 Topanga Canyon Blvd, Canoga Park, CA, USA"
  },
  {
    "name": "Chipotle Mexican Grill",
    "address": "1955 41St Ave",
    "city": "Capitola",
    "state": "CA",
    "zip": "",
    "latitude": 36.9777891,
    "longitude": -121.9669316,
    "full_address": "1955 41St Ave, Capitola, CA, USA"
  },
  {
    "name": "Chipotle Mexican Grill",
    "address": "2505 Palomar Airport Rd",
    "city": "Carlsbad",
    "state": "CA",
    "zip": "",
    "latitude": 33.1280797,
    "longitude": -117.2704874,
    "full_address": "2505 Palomar Airport Rd, Carlsbad, CA, USA"
  },
  {
    "name": "Chipotle Mexican Grill",
    "address": "3416 Via Mercato",
    "city": "Carlsbad",
    "state": "CA",
    "zip": "",
    "latitude": 33.0818259,
    "longitude": -117.2359868,
    "full_address": "3416 Via Mercato, Carlsbad, CA, USA"
  },
  {
    "name": "Chipotle Mexican Grill",
    "address": "20420 Avalon Blvd",
    "city": "Carson",
    "state": "CA",
    "zip": "",
    "latitude": 33.8465737,
    "longitude": -118.2637186,
    "full_address": "20420 Avalon Blvd, Carson, CA, USA"
  },
  {
    "name": "Chipotle Mexican Grill",
    "address": "3369 Castro Valley Blvd",
    "city": "Castro Valley",
    "state": "CA",
    "zip": "",
    "latitude": 37.6953202,
    "longitude": -122.0768995,
    "full_address": "3369 Castro Valley Blvd, Castro Valley, CA, USA"
  },
  {
    "name": "Chipotle Mexican Grill",
    "address": "2870 E Service Rd",
    "city": "Ceres",
    "state": "CA",
    "zip": "",
    "latitude": 37.5801379,
    "longitude": -120.9414667,
    "full_address": "2870 E Service Rd, Ceres, CA, USA"
  },
  {
    "name": "Chipotle Mexican Grill",
    "address": "10826 Alondra Blvd",
    "city": "Cerritos",
    "state": "CA",
    "zip": "",
    "latitude": 33.8859176,
    "longitude": -118.1019801,
    "full_address": "10826 Alondra Blvd, Cerritos, CA, USA"
  },
  {
    "name": "Chipotle Mexican Grill",
    "address": "12560 Artesia Blvd",
    "city": "Cerritos",
    "state": "CA",
    "zip": "",
    "latitude": 33.8728166,
    "longitude": -118.064147,
    "full_address": "12560 Artesia Blvd, Cerritos, CA, USA"
  },
  {
    "name": "Chipotle Mexican Grill",
    "address": "459 Los Cerritos Mall",
    "city": "Cerritos",
    "state": "CA",
    "zip": "",
    "latitude": 33.8604664,
    "longitude": -118.09255,
    "full_address": "459 Los Cerritos Mall, Cerritos, CA, USA"
  },
  {
    "name": "Chipotle Mexican Grill",
    "address": "9175 De Soto Ave",
    "city": "Chatsworth",
    "state": "CA",
    "zip": "",
    "latitude": 34.2375172,
    "longitude": -118.5890791,
    "full_address": "9175 De Soto Ave, Chatsworth, CA, USA"
  },
  {
    "name": "Chipotle Mexican Grill",
    "address": "1960 E 20Th St",
    "city": "Chico",
    "state": "CA",
    "zip": "",
    "latitude": 39.7275682,
    "longitude": -121.80514,
    "full_address": "1960 E 20Th St, Chico, CA, USA"
  },
  {
    "name": "Chipotle Mexican Grill",
    "address": "620 Mangrove Ave",
    "city": "Chico",
    "state": "CA",
    "zip": "",
    "latitude": 39.7343701,
    "longitude": -121.8351407,
    "full_address": "620 Mangrove Ave, Chico, CA, USA"
  },
  {
    "name": "Chipotle Mexican Grill",
    "address": "962 East Ave",
    "city": "Chico",
    "state": "CA",
    "zip": "",
    "latitude": 39.7611847,
    "longitude": -121.8422238,
    "full_address": "962 East Ave, Chico, CA, USA"
  },
  {
    "name": "Chipotle Mexican Grill",
    "address": "13920 City Center Dr",
    "city": "Chino Hills",
    "state": "CA",
    "zip": "",
    "latitude": 34.0002851,
    "longitude": -117.7305419,
    "full_address": "13920 City Center Dr, Chino Hills, CA, USA"
  },
  {
    "name": "Chipotle Mexican Grill",
    "address": "12188 Central Ave",
    "city": "Chino",
    "state": "CA",
    "zip": "",
    "latitude": 34.0320077,
    "longitude": -117.6902471,
    "full_address": "12188 Central Ave, Chino, CA, USA"
  },
  {
    "name": "Chipotle Mexican Grill",
    "address": "8417 Pine Ave",
    "city": "Chino",
    "state": "CA",
    "zip": "",
    "latitude": 33.9584581,
    "longitude": -117.6208643,
    "full_address": "8417 Pine Ave, Chino, CA, USA"
  },
  {
    "name": "Chipotle Mexican Grill",
    "address": "2290 Otay Lakes Rd",
    "city": "Chula Vista",
    "state": "CA",
    "zip": "",
    "latitude": 32.6471531,
    "longitude": -116.9656095,
    "full_address": "2290 Otay Lakes Rd, Chula Vista, CA, USA"
  },
  {
    "name": "Chipotle Mexican Grill",
    "address": "569 H St",
    "city": "Chula Vista",
    "state": "CA",
    "zip": "",
    "latitude": 32.6315492,
    "longitude": -117.0880898,
    "full_address": "569 H St, Chula Vista, CA, USA"
  },
  {
    "name": "Chipotle Mexican Grill",
    "address": "720 Otay Lakes Rd",
    "city": "Chula Vista",
    "state": "CA",
    "zip": "",
    "latitude": 32.6461837,
    "longitude": -117.0026019,
    "full_address": "720 Otay Lakes Rd, Chula Vista, CA, USA"
  },
  {
    "name": "Chipotle Mexican Grill",
    "address": "5851 Sunrise Blvd",
    "city": "Citrus Heights",
    "state": "CA",
    "zip": "",
    "latitude": 38.6732703,
    "longitude": -121.2715864,
    "full_address": "5851 Sunrise Blvd, Citrus Heights, CA, USA"
  },
  {
    "name": "Chipotle Mexican Grill",
    "address": "15495 Valley Blvd",
    "city": "City Of Industry",
    "state": "CA",
    "zip": "",
    "latitude": 34.0219625,
    "longitude": -117.9596089,
    "full_address": "15495 Valley Blvd, City Of Industry, CA, USA"
  },
  {
    "name": "Chipotle Mexican Grill",
    "address": "17501 Colima Rd",
    "city": "City Of Industry",
    "state": "CA",
    "zip": "",
    "latitude": 33.990618,
    "longitude": -117.924133,
    "full_address": "17501 Colima Rd, City Of Industry, CA, USA"
  },
  {
    "name": "Chipotle Mexican Grill",
    "address": "885 S Indian Hill Blvd",
    "city": "Claremont",
    "state": "CA",
    "zip": "",
    "latitude": 34.0797573,
    "longitude": -117.7195523,
    "full_address": "885 S Indian Hill Blvd, Claremont, CA, USA"
  },
  {
    "name": "Chipotle Mexican Grill",
    "address": "1210 Shaw Ave",
    "city": "Clovis",
    "state": "CA",
    "zip": "",
    "latitude": 36.8084534,
    "longitude": -119.6937093,
    "full_address": "1210 Shaw Ave, Clovis, CA, USA"
  },
  {
    "name": "Chipotle Mexican Grill",
    "address": "1840 Herndon Ave",
    "city": "Clovis",
    "state": "CA",
    "zip": "",
    "latitude": 36.8375499,
    "longitude": -119.6832323,
    "full_address": "1840 Herndon Ave, Clovis, CA, USA"
  },
  {
    "name": "Chipotle Mexican Grill",
    "address": "3620 Shaw Ave",
    "city": "Clovis",
    "state": "CA",
    "zip": "",
    "latitude": 36.808577,
    "longitude": -119.7047644,
    "full_address": "3620 Shaw Ave, Clovis, CA, USA"
  },
  {
    "name": "Chipotle Mexican Grill",
    "address": "990 Serramonte Blvd",
    "city": "Colma",
    "state": "CA",
    "zip": "",
    "latitude": 37.6712286,
    "longitude": -122.4643837,
    "full_address": "990 Serramonte Blvd, Colma, CA, USA"
  },
  {
    "name": "Chipotle Mexican Grill",
    "address": "150 Citadel Dr",
    "city": "Commerce",
    "state": "CA",
    "zip": "",
    "latitude": 34.0057638,
    "longitude": -118.1532892,
    "full_address": "150 Citadel Dr, Commerce, CA, USA"
  },
  {
    "name": "Chipotle Mexican Grill",
    "address": "1759 S Alameda St",
    "city": "Compton",
    "state": "CA",
    "zip": "",
    "latitude": 33.8766751,
    "longitude": -118.2178378,
    "full_address": "1759 S Alameda St, Compton, CA, USA"
  },
  {
    "name": "Chipotle Mexican Grill",
    "address": "2002 Salvio St",
    "city": "Concord",
    "state": "CA",
    "zip": "",
    "latitude": 37.9768914,
    "longitude": -122.0356276,
    "full_address": "2002 Salvio St, Concord, CA, USA"
  },
  {
    "name": "Chipotle Mexican Grill",
    "address": "5434 Ygnacio Valley Rd",
    "city": "Concord",
    "state": "CA",
    "zip": "",
    "latitude": 37.950244,
    "longitude": -121.9585348,
    "full_address": "5434 Ygnacio Valley Rd, Concord, CA, USA"
  },
  {
    "name": "Chipotle Mexican Grill",
    "address": "785 Oak Grove Rd",
    "city": "Concord",
    "state": "CA",
    "zip": "",
    "latitude": 37.9377015,
    "longitude": -122.0256327,
    "full_address": "785 Oak Grove Rd, Concord, CA, USA"
  },
  {
    "name": "Chipotle Mexican Grill",
    "address": "3050 E Coast Hwy",
    "city": "Corona Del Mar",
    "state": "CA",
    "zip": "",
    "latitude": 33.5984801,
    "longitude": -117.8720219,
    "full_address": "3050 E Coast Hwy, Corona Del Mar, CA, USA"
  },
  {
    "name": "Chipotle Mexican Grill",
    "address": "1160 E Ontario Ave",
    "city": "Corona",
    "state": "CA",
    "zip": "",
    "latitude": 33.8476538,
    "longitude": -117.5437931,
    "full_address": "1160 E Ontario Ave, Corona, CA, USA"
  },
  {
    "name": "Chipotle Mexican Grill",
    "address": "2560 Tuscany St",
    "city": "Corona",
    "state": "CA",
    "zip": "",
    "latitude": null,
    "longitude": null,
    "full_address": "2560 Tuscany St, Corona, CA, USA"
  },
  {
    "name": "Chipotle Mexican Grill",
    "address": "300 N Mckinley St",
    "city": "Corona",
    "state": "CA",
    "zip": "",
    "latitude": 33.887288,
    "longitude": -117.518757,
    "full_address": "300 N Mckinley St, Corona, CA, USA"
  },
  {
    "name": "Chipotle Mexican Grill",
    "address": "1360 Orange Ave",
    "city": "Coronado",
    "state": "CA",
    "zip": "",
    "latitude": 32.6825261,
    "longitude": -117.178646,
    "full_address": "1360 Orange Ave, Coronado, CA, USA"
  },
  {
    "name": "Chipotle Mexican Grill",
    "address": "2300 Harbor Blvd",
    "city": "Costa Mesa",
    "state": "CA",
    "zip": "",
    "latitude": 33.6588435,
    "longitude": -117.9166056,
    "full_address": "2300 Harbor Blvd, Costa Mesa, CA, USA"
  },
  {
    "name": "Chipotle Mexican Grill",
    "address": "260 Bristol St",
    "city": "Costa Mesa",
    "state": "CA",
    "zip": "",
    "latitude": 33.6678957,
    "longitude": -117.8829583,
    "full_address": "260 Bristol St, Costa Mesa, CA, USA"
  },
  {
    "name": "Chipotle Mexican Grill",
    "address": "468 E 17Th St",
    "city": "Costa Mesa",
    "state": "CA",
    "zip": "",
    "latitude": 33.6292829,
    "longitude": -117.9097577,
    "full_address": "468 E 17Th St, Costa Mesa, CA, USA"
  },
  {
    "name": "Chipotle Mexican Grill",
    "address": "895 L St",
    "city": "Crescent City",
    "state": "CA",
    "zip": "",
    "latitude": 41.7580513,
    "longitude": -124.1978982,
    "full_address": "895 L St, Crescent City, CA, USA"
  },
  {
    "name": "Chipotle Mexican Grill",
    "address": "4114 Sepulveda Blvd",
    "city": "Culver City",
    "state": "CA",
    "zip": "",
    "latitude": 34.0068918,
    "longitude": -118.4125595,
    "full_address": "4114 Sepulveda Blvd, Culver City, CA, USA"
  },
  {
    "name": "Chipotle Mexican Grill",
    "address": "6000 Sepulveda Blvd",
    "city": "Culver City",
    "state": "CA",
    "zip": "",
    "latitude": 33.9851103,
    "longitude": -118.394513,
    "full_address": "6000 Sepulveda Blvd, Culver City, CA, USA"
  },
  {
    "name": "Chipotle Mexican Grill",
    "address": "6150 W Slauson Ave",
    "city": "Culver City",
    "state": "CA",
    "zip": "",
    "latitude": 33.9881297,
    "longitude": -118.3927859,
    "full_address": "6150 W Slauson Ave, Culver City, CA, USA"
  },
  {
    "name": "Chipotle Mexican Grill",
    "address": "10385 S De Anza Blvd",
    "city": "Cupertino",
    "state": "CA",
    "zip": "",
    "latitude": 37.3172452,
    "longitude": -122.0327572,
    "full_address": "10385 S De Anza Blvd, Cupertino, CA, USA"
  },
  {
    "name": "Chipotle Mexican Grill",
    "address": "20688 Homestead Rd",
    "city": "Cupertino",
    "state": "CA",
    "zip": "",
    "latitude": 37.3373094,
    "longitude": -122.036459,
    "full_address": "20688 Homestead Rd, Cupertino, CA, USA"
  },
  {
    "name": "Chipotle Mexican Grill",
    "address": "6859 Katella Ave",
    "city": "Cypress",
    "state": "CA",
    "zip": "",
    "latitude": 33.8036495,
    "longitude": -118.0124567,
    "full_address": "6859 Katella Ave, Cypress, CA, USA"
  },
  {
    "name": "Chipotle Mexican Grill",
    "address": "213 Westlake Ctr",
    "city": "Daly City",
    "state": "CA",
    "zip": "",
    "latitude": 37.7015023,
    "longitude": -122.4824458,
    "full_address": "213 Westlake Ctr, Daly City, CA, USA"
  },
  {
    "name": "Chipotle Mexican Grill",
    "address": "33 Railroad Ave",
    "city": "Danville",
    "state": "CA",
    "zip": "",
    "latitude": 37.8232107,
    "longitude": -122.0040201,
    "full_address": "33 Railroad Ave, Danville, CA, USA"
  },
  {
    "name": "Chipotle Mexican Grill",
    "address": "227 E St",
    "city": "Davis",
    "state": "CA",
    "zip": "",
    "latitude": 38.5436206,
    "longitude": -121.7412869,
    "full_address": "227 E St, Davis, CA, USA"
  },
  {
    "name": "Chipotle Mexican Grill",
    "address": "2710 Via De La Valle",
    "city": "Del Mar",
    "state": "CA",
    "zip": "",
    "latitude": 32.980284,
    "longitude": -117.2606526,
    "full_address": "2710 Via De La Valle, Del Mar, CA, USA"
  },
  {
    "name": "Chipotle Mexican Grill",
    "address": "503 Woollomes Avenue",
    "city": "Delano",
    "state": "CA",
    "zip": "",
    "latitude": 35.7467808,
    "longitude": -119.3208991,
    "full_address": "503 Woollomes Avenue, Delano, CA, USA"
  },
  {
    "name": "Chipotle Mexican Grill",
    "address": "235 S Diamond Bar Blvd",
    "city": "Diamond Bar",
    "state": "CA",
    "zip": "",
    "latitude": 34.0215122,
    "longitude": -117.8102214,
    "full_address": "235 S Diamond Bar Blvd, Diamond Bar, CA, USA"
  },
  {
    "name": "Chipotle Mexican Grill",
    "address": "2100 N First Street",
    "city": "Dixon",
    "state": "CA",
    "zip": "",
    "latitude": null,
    "longitude": null,
    "full_address": "2100 N First Street, Dixon, CA, USA"
  },
  {
    "name": "Chipotle Mexican Grill",
    "address": "8500 Firestone Blvd",
    "city": "Downey",
    "state": "CA",
    "zip": "",
    "latitude": 33.9378024,
    "longitude": -118.129524,
    "full_address": "8500 Firestone Blvd, Downey, CA, USA"
  },
  {
    "name": "Chipotle Mexican Grill",
    "address": "8890 Apollo Way",
    "city": "Downey",
    "state": "CA",
    "zip": "",
    "latitude": 33.922229,
    "longitude": -118.1315477,
    "full_address": "8890 Apollo Way, Downey, CA, USA"
  },
  {
    "name": "Chipotle Mexican Grill",
    "address": "5240 Dublin Blvd",
    "city": "Dublin",
    "state": "CA",
    "zip": "",
    "latitude": 37.7056438,
    "longitude": -121.8908409,
    "full_address": "5240 Dublin Blvd, Dublin, CA, USA"
  },
  {
    "name": "Chipotle Mexican Grill",
    "address": "7020 Amador Plaza Rd",
    "city": "Dublin",
    "state": "CA",
    "zip": "",
    "latitude": 37.7063667,
    "longitude": -121.9290845,
    "full_address": "7020 Amador Plaza Rd, Dublin, CA, USA"
  },
  {
    "name": "Chipotle Mexican Grill",
    "address": "12411 Limonite Ave",
    "city": "Eastvale",
    "state": "CA",
    "zip": "",
    "latitude": 33.97665,
    "longitude": -117.552866,
    "full_address": "12411 Limonite Ave, Eastvale, CA, USA"
  },
  {
    "name": "Chipotle Mexican Grill",
    "address": "225 Jamacha Rd",
    "city": "El Cajon",
    "state": "CA",
    "zip": "",
    "latitude": 32.7942303,
    "longitude": -116.935056,
    "full_address": "225 Jamacha Rd, El Cajon, CA, USA"
  },
  {
    "name": "Chipotle Mexican Grill",
    "address": "706 Fletcher Pkwy",
    "city": "El Cajon",
    "state": "CA",
    "zip": "",
    "latitude": 32.8082395,
    "longitude": -116.9714187,
    "full_address": "706 Fletcher Pkwy, El Cajon, CA, USA"
  },
  {
    "name": "Chipotle Mexican Grill",
    "address": "1953 N Imperial Ave",
    "city": "El Centro",
    "state": "CA",
    "zip": "",
    "latitude": 32.8140554,
    "longitude": -115.5700819,
    "full_address": "1953 N Imperial Ave, El Centro, CA, USA"
  },
  {
    "name": "Chipotle Mexican Grill",
    "address": "9901 San Pablo Ave",
    "city": "El Cerrito",
    "state": "CA",
    "zip": "",
    "latitude": 37.899219,
    "longitude": -122.30225,
    "full_address": "9901 San Pablo Ave, El Cerrito, CA, USA"
  },
  {
    "name": "Chipotle Mexican Grill",
    "address": "4520 Post St",
    "city": "El Dorado Hills",
    "state": "CA",
    "zip": "",
    "latitude": 38.6486303,
    "longitude": -121.0670532,
    "full_address": "4520 Post St, El Dorado Hills, CA, USA"
  },
  {
    "name": "Chipotle Mexican Grill",
    "address": "307 N Pacific Coast Hwy",
    "city": "El Segundo",
    "state": "CA",
    "zip": "",
    "latitude": 33.9197092,
    "longitude": -118.3964978,
    "full_address": "307 N Pacific Coast Hwy, El Segundo, CA, USA"
  },
  {
    "name": "Chipotle Mexican Grill",
    "address": "4730 Elk Grove Blvd",
    "city": "Elk Grove",
    "state": "CA",
    "zip": "",
    "latitude": 38.4083305,
    "longitude": -121.4494447,
    "full_address": "4730 Elk Grove Blvd, Elk Grove, CA, USA"
  },
  {
    "name": "Chipotle Mexican Grill",
    "address": "7440 Laguna Blvd",
    "city": "Elk Grove",
    "state": "CA",
    "zip": "",
    "latitude": 38.4227306,
    "longitude": -121.4155157,
    "full_address": "7440 Laguna Blvd, Elk Grove, CA, USA"
  },
  {
    "name": "Chipotle Mexican Grill",
    "address": "7450 Elk Grove Blvd",
    "city": "Elk Grove",
    "state": "CA",
    "zip": "",
    "latitude": 38.4089382,
    "longitude": -121.4126626,
    "full_address": "7450 Elk Grove Blvd, Elk Grove, CA, USA"
  },
  {
    "name": "Chipotle Mexican Grill",
    "address": "5761 Christie Ave",
    "city": "Emeryville",
    "state": "CA",
    "zip": "",
    "latitude": 37.8370279,
    "longitude": -122.2942547,
    "full_address": "5761 Christie Ave, Emeryville, CA, USA"
  },
  {
    "name": "Chipotle Mexican Grill",
    "address": "242 N El Camino Real",
    "city": "Encinitas",
    "state": "CA",
    "zip": "",
    "latitude": 33.0494446,
    "longitude": -117.2605691,
    "full_address": "242 N El Camino Real, Encinitas, CA, USA"
  },
  {
    "name": "Chipotle Mexican Grill",
    "address": "1201 E Valley Pkwy",
    "city": "Escondido",
    "state": "CA",
    "zip": "",
    "latitude": 33.130272,
    "longitude": -117.0665387,
    "full_address": "1201 E Valley Pkwy, Escondido, CA, USA"
  },
  {
    "name": "Chipotle Mexican Grill",
    "address": "1310 W Valley Pkwy",
    "city": "Escondido",
    "state": "CA",
    "zip": "",
    "latitude": 33.1138717,
    "longitude": -117.1019579,
    "full_address": "1310 W Valley Pkwy, Escondido, CA, USA"
  },
  {
    "name": "Chipotle Mexican Grill",
    "address": "200 E Via Rancho Pkwy",
    "city": "Escondido",
    "state": "CA",
    "zip": "",
    "latitude": 33.068869,
    "longitude": -117.067836,
    "full_address": "200 E Via Rancho Pkwy, Escondido, CA, USA"
  },
  {
    "name": "Chipotle Mexican Grill",
    "address": "2626 Broadway",
    "city": "Eureka",
    "state": "CA",
    "zip": "",
    "latitude": 40.7896562,
    "longitude": -124.1818797,
    "full_address": "2626 Broadway, Eureka, CA, USA"
  },
  {
    "name": "Chipotle Mexican Grill",
    "address": "5223 Hazel Ave",
    "city": "Fair Oaks",
    "state": "CA",
    "zip": "",
    "latitude": null,
    "longitude": null,
    "full_address": "5223 Hazel Ave, Fair Oaks, CA, USA"
  },
  {
    "name": "Chipotle Mexican Grill",
    "address": "1586 Gateway Blvd",
    "city": "Fairfield",
    "state": "CA",
    "zip": "",
    "latitude": 38.2616184,
    "longitude": -122.0584748,
    "full_address": "1586 Gateway Blvd, Fairfield, CA, USA"
  },
  {
    "name": "Chipotle Mexican Grill",
    "address": "1001 E Bidwell St",
    "city": "Folsom",
    "state": "CA",
    "zip": "",
    "latitude": 38.6694643,
    "longitude": -121.1555959,
    "full_address": "1001 E Bidwell St, Folsom, CA, USA"
  },
  {
    "name": "Chipotle Mexican Grill",
    "address": "2379 Iron Point Rd",
    "city": "Folsom",
    "state": "CA",
    "zip": "",
    "latitude": 38.6450201,
    "longitude": -121.1232859,
    "full_address": "2379 Iron Point Rd, Folsom, CA, USA"
  },
  {
    "name": "Chipotle Mexican Grill",
    "address": "10515 Sierra Ave",
    "city": "Fontana",
    "state": "CA",
    "zip": "",
    "latitude": 34.0626371,
    "longitude": -117.435041,
    "full_address": "10515 Sierra Ave, Fontana, CA, USA"
  },
  {
    "name": "Chipotle Mexican Grill",
    "address": "16595 Sierra Lakes Pkwy",
    "city": "Fontana",
    "state": "CA",
    "zip": "",
    "latitude": 34.1383911,
    "longitude": -117.4414888,
    "full_address": "16595 Sierra Lakes Pkwy, Fontana, CA, USA"
  },
  {
    "name": "Chipotle Mexican Grill",
    "address": "8030 Cherry Ave",
    "city": "Fontana",
    "state": "CA",
    "zip": "",
    "latitude": 34.1078503,
    "longitude": -117.4888025,
    "full_address": "8030 Cherry Ave, Fontana, CA, USA"
  },
  {
    "name": "Chipotle Mexican Grill",
    "address": "2019 Chess Dr",
    "city": "Foster City",
    "state": "CA",
    "zip": "",
    "latitude": 37.5625375,
    "longitude": -122.2806402,
    "full_address": "2019 Chess Dr, Foster City, CA, USA"
  },
  {
    "name": "Chipotle Mexican Grill",
    "address": "17150 Brookhurst St",
    "city": "Fountain Valley",
    "state": "CA",
    "zip": "",
    "latitude": 33.7134459,
    "longitude": -117.9542522,
    "full_address": "17150 Brookhurst St, Fountain Valley, CA, USA"
  },
  {
    "name": "Chipotle Mexican Grill",
    "address": "18951 Brookhurst St",
    "city": "Fountain Valley",
    "state": "CA",
    "zip": "",
    "latitude": 33.687597,
    "longitude": -117.9545118,
    "full_address": "18951 Brookhurst St, Fountain Valley, CA, USA"
  },
  {
    "name": "Chipotle Mexican Grill",
    "address": "2760 Mowry Ave",
    "city": "Fremont",
    "state": "CA",
    "zip": "",
    "latitude": 37.5543743,
    "longitude": -121.9817025,
    "full_address": "2760 Mowry Ave, Fremont, CA, USA"
  },
  {
    "name": "Chipotle Mexican Grill",
    "address": "44029 Osgood Rd",
    "city": "Fremont",
    "state": "CA",
    "zip": "",
    "latitude": 37.5110667,
    "longitude": -121.9407799,
    "full_address": "44029 Osgood Rd, Fremont, CA, USA"
  },
  {
    "name": "Chipotle Mexican Grill",
    "address": "5565 Auto Mall Pkwy",
    "city": "Fremont",
    "state": "CA",
    "zip": "",
    "latitude": 37.5043632,
    "longitude": -121.9756125,
    "full_address": "5565 Auto Mall Pkwy, Fremont, CA, USA"
  },
  {
    "name": "Chipotle Mexican Grill",
    "address": "3520 N Blackstone Ave",
    "city": "Fresno",
    "state": "CA",
    "zip": "",
    "latitude": 36.7816152,
    "longitude": -119.7899271,
    "full_address": "3520 N Blackstone Ave, Fresno, CA, USA"
  },
  {
    "name": "Chipotle Mexican Grill",
    "address": "4424 W Shaw Ave",
    "city": "Fresno",
    "state": "CA",
    "zip": "",
    "latitude": 36.8094488,
    "longitude": -119.871774,
    "full_address": "4424 W Shaw Ave, Fresno, CA, USA"
  },
  {
    "name": "Chipotle Mexican Grill",
    "address": "4978 N Cedar Ave",
    "city": "Fresno",
    "state": "CA",
    "zip": "",
    "latitude": 36.8081645,
    "longitude": -119.7534141,
    "full_address": "4978 N Cedar Ave, Fresno, CA, USA"
  },
  {
    "name": "Chipotle Mexican Grill",
    "address": "5128 N Palm Ave",
    "city": "Fresno",
    "state": "CA",
    "zip": "",
    "latitude": 36.8110168,
    "longitude": -119.8081154,
    "full_address": "5128 N Palm Ave, Fresno, CA, USA"
  },
  {
    "name": "Chipotle Mexican Grill",
    "address": "6702 N Brawley Ave",
    "city": "Fresno",
    "state": "CA",
    "zip": "",
    "latitude": 36.8356567,
    "longitude": -119.8619473,
    "full_address": "6702 N Brawley Ave, Fresno, CA, USA"
  },
  {
    "name": "Chipotle Mexican Grill",
    "address": "80 E Nees Ave",
    "city": "Fresno",
    "state": "CA",
    "zip": "",
    "latitude": 36.8521294,
    "longitude": -119.7890245,
    "full_address": "80 E Nees Ave, Fresno, CA, USA"
  },
  {
    "name": "Chipotle Mexican Grill",
    "address": "101 E Orangethorpe Ave",
    "city": "Fullerton",
    "state": "CA",
    "zip": "",
    "latitude": 33.8596944,
    "longitude": -117.9237318,
    "full_address": "101 E Orangethorpe Ave, Fullerton, CA, USA"
  },
  {
    "name": "Chipotle Mexican Grill",
    "address": "501 N State College Blvd",
    "city": "Fullerton",
    "state": "CA",
    "zip": "",
    "latitude": 33.874601,
    "longitude": -117.8900195,
    "full_address": "501 N State College Blvd, Fullerton, CA, USA"
  },
  {
    "name": "Chipotle Mexican Grill",
    "address": "9737 Chapman Ave",
    "city": "Garden Grove",
    "state": "CA",
    "zip": "",
    "latitude": 33.7888562,
    "longitude": -117.963361,
    "full_address": "9737 Chapman Ave, Garden Grove, CA, USA"
  },
  {
    "name": "Chipotle Mexican Grill",
    "address": "1755 W Artesia Blvd",
    "city": "Gardena",
    "state": "CA",
    "zip": "",
    "latitude": 33.8734735,
    "longitude": -118.3088454,
    "full_address": "1755 W Artesia Blvd, Gardena, CA, USA"
  },
  {
    "name": "Chipotle Mexican Grill",
    "address": "6955 Camino Arroyo",
    "city": "Gilroy",
    "state": "CA",
    "zip": "",
    "latitude": 37.0207573,
    "longitude": -121.5617022,
    "full_address": "6955 Camino Arroyo, Gilroy, CA, USA"
  },
  {
    "name": "Chipotle Mexican Grill",
    "address": "1135 Glendale Galleria",
    "city": "Glendale",
    "state": "CA",
    "zip": "",
    "latitude": null,
    "longitude": null,
    "full_address": "1135 Glendale Galleria, Glendale, CA, USA"
  },
  {
    "name": "Chipotle Mexican Grill",
    "address": "132 N Glendale Ave",
    "city": "Glendale",
    "state": "CA",
    "zip": "",
    "latitude": 34.1474616,
    "longitude": -118.2463613,
    "full_address": "132 N Glendale Ave, Glendale, CA, USA"
  },
  {
    "name": "Chipotle Mexican Grill",
    "address": "155 N Brand Blvd",
    "city": "Glendale",
    "state": "CA",
    "zip": "",
    "latitude": 34.1479255,
    "longitude": -118.2552843,
    "full_address": "155 N Brand Blvd, Glendale, CA, USA"
  },
  {
    "name": "Chipotle Mexican Grill",
    "address": "1365 E Gladstone St",
    "city": "Glendora",
    "state": "CA",
    "zip": "",
    "latitude": 34.1164168,
    "longitude": -117.8358544,
    "full_address": "1365 E Gladstone St, Glendora, CA, USA"
  },
  {
    "name": "Chipotle Mexican Grill",
    "address": "2350 Sunrise Blvd",
    "city": "Gold River",
    "state": "CA",
    "zip": "",
    "latitude": 38.6170282,
    "longitude": -121.2690107,
    "full_address": "2350 Sunrise Blvd, Gold River, CA, USA"
  },
  {
    "name": "Chipotle Mexican Grill",
    "address": "270 Storke Rd",
    "city": "Goleta",
    "state": "CA",
    "zip": "",
    "latitude": 34.42913,
    "longitude": -119.869455,
    "full_address": "270 Storke Rd, Goleta, CA, USA"
  },
  {
    "name": "Chipotle Mexican Grill",
    "address": "16959 Devonshire St",
    "city": "Granada Hills",
    "state": "CA",
    "zip": "",
    "latitude": 34.2577743,
    "longitude": -118.5020386,
    "full_address": "16959 Devonshire St, Granada Hills, CA, USA"
  },
  {
    "name": "Chipotle Mexican Grill",
    "address": "6981 Douglas Blvd",
    "city": "Granite Bay",
    "state": "CA",
    "zip": "",
    "latitude": 38.7438367,
    "longitude": -121.1717947,
    "full_address": "6981 Douglas Blvd, Granite Bay, CA, USA"
  },
  {
    "name": "Chipotle Mexican Grill",
    "address": "366 N 12Th Ave",
    "city": "Hanford",
    "state": "CA",
    "zip": "",
    "latitude": 36.3304756,
    "longitude": -119.6729735,
    "full_address": "366 N 12Th Ave, Hanford, CA, USA"
  },
  {
    "name": "Chipotle Mexican Grill",
    "address": "5330 W Rosecrans Ave",
    "city": "Hawthorne",
    "state": "CA",
    "zip": "",
    "latitude": 33.9012402,
    "longitude": -118.37317,
    "full_address": "5330 W Rosecrans Ave, Hawthorne, CA, USA"
  },
  {
    "name": "Chipotle Mexican Grill",
    "address": "22263 Foothill Boulevard",
    "city": "Hayward",
    "state": "CA",
    "zip": "",
    "latitude": 37.6796052,
    "longitude": -122.0850187,
    "full_address": "22263 Foothill Boulevard, Hayward, CA, USA"
  },
  {
    "name": "Chipotle Mexican Grill",
    "address": "2465 W Florida Ave",
    "city": "Hemet",
    "state": "CA",
    "zip": "",
    "latitude": 33.7471192,
    "longitude": -116.9975165,
    "full_address": "2465 W Florida Ave, Hemet, CA, USA"
  },
  {
    "name": "Chipotle Mexican Grill",
    "address": "1439 Pacific Coast Hwy",
    "city": "Hermosa Beach",
    "state": "CA",
    "zip": "",
    "latitude": 33.8653707,
    "longitude": -118.3934826,
    "full_address": "1439 Pacific Coast Hwy, Hermosa Beach, CA, USA"
  },
  {
    "name": "Chipotle Mexican Grill",
    "address": "9770 Mariposa Rd",
    "city": "Hesperia",
    "state": "CA",
    "zip": "",
    "latitude": 34.428007,
    "longitude": -117.3784186,
    "full_address": "9770 Mariposa Rd, Hesperia, CA, USA"
  },
  {
    "name": "Chipotle Mexican Grill",
    "address": "27876 Greenspot Rd",
    "city": "Highland",
    "state": "CA",
    "zip": "",
    "latitude": 34.1083493,
    "longitude": -117.1923687,
    "full_address": "27876 Greenspot Rd, Highland, CA, USA"
  },
  {
    "name": "Chipotle Mexican Grill",
    "address": "1250 E Park St",
    "city": "Hollister",
    "state": "CA",
    "zip": "",
    "latitude": 36.8419289,
    "longitude": -121.3912185,
    "full_address": "1250 E Park St, Hollister, CA, USA"
  },
  {
    "name": "Chipotle Mexican Grill",
    "address": "16241 Beach Blvd",
    "city": "Huntington Beach",
    "state": "CA",
    "zip": "",
    "latitude": 33.7268376,
    "longitude": -117.9896931,
    "full_address": "16241 Beach Blvd, Huntington Beach, CA, USA"
  },
  {
    "name": "Chipotle Mexican Grill",
    "address": "20962 Magnolia St",
    "city": "Huntington Beach",
    "state": "CA",
    "zip": "",
    "latitude": 33.6584089,
    "longitude": -117.9712159,
    "full_address": "20962 Magnolia St, Huntington Beach, CA, USA"
  },
  {
    "name": "Chipotle Mexican Grill",
    "address": "7101 Yorktown Ave",
    "city": "Huntington Beach",
    "state": "CA",
    "zip": "",
    "latitude": 33.6793779,
    "longitude": -118.0046283,
    "full_address": "7101 Yorktown Ave, Huntington Beach, CA, USA"
  },
  {
    "name": "Chipotle Mexican Grill",
    "address": "801 Palm Ave",
    "city": "Imperial Beach",
    "state": "CA",
    "zip": "",
    "latitude": 32.5835429,
    "longitude": -117.115578,
    "full_address": "801 Palm Ave, Imperial Beach, CA, USA"
  },
  {
    "name": "Chipotle Mexican Grill",
    "address": "42213 Jackson St",
    "city": "Indio",
    "state": "CA",
    "zip": "",
    "latitude": 33.7437088,
    "longitude": -116.2171547,
    "full_address": "42213 Jackson St, Indio, CA, USA"
  },
  {
    "name": "Chipotle Mexican Grill",
    "address": "49810 Jefferson St",
    "city": "Indio",
    "state": "CA",
    "zip": "",
    "latitude": 33.687089,
    "longitude": -116.268618,
    "full_address": "49810 Jefferson St, Indio, CA, USA"
  },
  {
    "name": "Chipotle Mexican Grill",
    "address": "2944 W Imperial Hwy",
    "city": "Inglewood",
    "state": "CA",
    "zip": "",
    "latitude": 33.9307289,
    "longitude": -118.3255447,
    "full_address": "2944 W Imperial Hwy, Inglewood, CA, USA"
  },
  {
    "name": "Chipotle Mexican Grill",
    "address": "3421 W Century Blvd",
    "city": "Inglewood",
    "state": "CA",
    "zip": "",
    "latitude": 33.9465661,
    "longitude": -118.3321748,
    "full_address": "3421 W Century Blvd, Inglewood, CA, USA"
  },
  {
    "name": "Chipotle Mexican Grill",
    "address": "3911 Irvine Blvd",
    "city": "Irvine",
    "state": "CA",
    "zip": "",
    "latitude": 33.7234006,
    "longitude": -117.771493,
    "full_address": "3911 Irvine Blvd, Irvine, CA, USA"
  },
  {
    "name": "Chipotle Mexican Grill",
    "address": "3966 Barranca Pkwy",
    "city": "Irvine",
    "state": "CA",
    "zip": "",
    "latitude": 33.6854981,
    "longitude": -117.8112417,
    "full_address": "3966 Barranca Pkwy, Irvine, CA, USA"
  },
  {
    "name": "Chipotle Mexican Grill",
    "address": "4255 Campus Dr",
    "city": "Irvine",
    "state": "CA",
    "zip": "",
    "latitude": 33.6495013,
    "longitude": -117.839008,
    "full_address": "4255 Campus Dr, Irvine, CA, USA"
  },
  {
    "name": "Chipotle Mexican Grill",
    "address": "6424 Irvine Blvd",
    "city": "Irvine",
    "state": "CA",
    "zip": "",
    "latitude": 33.6984469,
    "longitude": -117.7409023,
    "full_address": "6424 Irvine Blvd, Irvine, CA, USA"
  },
  {
    "name": "Chipotle Mexican Grill",
    "address": "6500 Irvine Center Dr",
    "city": "Irvine",
    "state": "CA",
    "zip": "",
    "latitude": 33.6792005,
    "longitude": -117.7776215,
    "full_address": "6500 Irvine Center Dr, Irvine, CA, USA"
  },
  {
    "name": "Chipotle Mexican Grill",
    "address": "731 Spectrum Center Dr",
    "city": "Irvine",
    "state": "CA",
    "zip": "",
    "latitude": 33.6508841,
    "longitude": -117.7429244,
    "full_address": "731 Spectrum Center Dr, Irvine, CA, USA"
  },
  {
    "name": "Chipotle Mexican Grill",
    "address": "4152 Pyrite Street",
    "city": "Jurupa Valley",
    "state": "CA",
    "zip": "",
    "latitude": 34.0127647,
    "longitude": -117.4622961,
    "full_address": "4152 Pyrite Street, Jurupa Valley, CA, USA"
  },
  {
    "name": "Chipotle Mexican Grill",
    "address": "895 Foothill Blvd",
    "city": "La Canada Flintridge",
    "state": "CA",
    "zip": "",
    "latitude": 34.203597,
    "longitude": -118.197863,
    "full_address": "895 Foothill Blvd, La Canada Flintridge, CA, USA"
  },
  {
    "name": "Chipotle Mexican Grill",
    "address": "1202 S Idaho St",
    "city": "La Habra",
    "state": "CA",
    "zip": "",
    "latitude": 33.9171761,
    "longitude": -117.9590659,
    "full_address": "1202 S Idaho St, La Habra, CA, USA"
  },
  {
    "name": "Chipotle Mexican Grill",
    "address": "8657 Villa La Jolla Dr",
    "city": "La Jolla",
    "state": "CA",
    "zip": "",
    "latitude": 32.8661647,
    "longitude": -117.2315928,
    "full_address": "8657 Villa La Jolla Dr, La Jolla, CA, USA"
  },
  {
    "name": "Chipotle Mexican Grill",
    "address": "8005 Fletcher Pkwy",
    "city": "La Mesa",
    "state": "CA",
    "zip": "",
    "latitude": 32.7736223,
    "longitude": -117.0268664,
    "full_address": "8005 Fletcher Pkwy, La Mesa, CA, USA"
  },
  {
    "name": "Chipotle Mexican Grill",
    "address": "79174 Highway 111",
    "city": "La Quinta",
    "state": "CA",
    "zip": "",
    "latitude": null,
    "longitude": null,
    "full_address": "79174 Highway 111, La Quinta, CA, USA"
  },
  {
    "name": "Chipotle Mexican Grill",
    "address": "2298 Foothill Blvd",
    "city": "La Verne",
    "state": "CA",
    "zip": "",
    "latitude": 34.1120141,
    "longitude": -117.7623442,
    "full_address": "2298 Foothill Blvd, La Verne, CA, USA"
  },
  {
    "name": "Chipotle Mexican Grill",
    "address": "3518 Mt Diablo Blvd",
    "city": "Lafayette",
    "state": "CA",
    "zip": "",
    "latitude": 37.8922608,
    "longitude": -122.1176416,
    "full_address": "3518 Mt Diablo Blvd, Lafayette, CA, USA"
  },
  {
    "name": "Chipotle Mexican Grill",
    "address": "27221 La Paz Rd",
    "city": "Laguna Niguel",
    "state": "CA",
    "zip": "",
    "latitude": 33.5680341,
    "longitude": -117.7085467,
    "full_address": "27221 La Paz Rd, Laguna Niguel, CA, USA"
  },
  {
    "name": "Chipotle Mexican Grill",
    "address": "32391 Golden Lantern",
    "city": "Laguna Niguel",
    "state": "CA",
    "zip": "",
    "latitude": 33.4930479,
    "longitude": -117.6982597,
    "full_address": "32391 Golden Lantern, Laguna Niguel, CA, USA"
  },
  {
    "name": "Chipotle Mexican Grill",
    "address": "18492 Dexter Ave",
    "city": "Lake Elsinore",
    "state": "CA",
    "zip": "",
    "latitude": 33.6927969,
    "longitude": -117.3355003,
    "full_address": "18492 Dexter Ave, Lake Elsinore, CA, USA"
  },
  {
    "name": "Chipotle Mexican Grill",
    "address": "22379 El Toro Rd",
    "city": "Lake Forest",
    "state": "CA",
    "zip": "",
    "latitude": 33.6379563,
    "longitude": -117.6805953,
    "full_address": "22379 El Toro Rd, Lake Forest, CA, USA"
  },
  {
    "name": "Chipotle Mexican Grill",
    "address": "23645 El Toro Road",
    "city": "Lake Forest",
    "state": "CA",
    "zip": "",
    "latitude": 33.6188942,
    "longitude": -117.7035749,
    "full_address": "23645 El Toro Road, Lake Forest, CA, USA"
  },
  {
    "name": "Chipotle Mexican Grill",
    "address": "26592 Towne Centre Dr",
    "city": "Lake Forest",
    "state": "CA",
    "zip": "",
    "latitude": 33.6773944,
    "longitude": -117.6665286,
    "full_address": "26592 Towne Centre Dr, Lake Forest, CA, USA"
  },
  {
    "name": "Chipotle Mexican Grill",
    "address": "5310 Lakewood Blvd",
    "city": "Lakewood",
    "state": "CA",
    "zip": "",
    "latitude": 33.85414,
    "longitude": -118.1419492,
    "full_address": "5310 Lakewood Blvd, Lakewood, CA, USA"
  },
  {
    "name": "Chipotle Mexican Grill",
    "address": "855 W Avenue K",
    "city": "Lancaster",
    "state": "CA",
    "zip": "",
    "latitude": 34.6752388,
    "longitude": -118.1475855,
    "full_address": "855 W Avenue K, Lancaster, CA, USA"
  },
  {
    "name": "Chipotle Mexican Grill",
    "address": "16542 Golden Valley Pkwy",
    "city": "Lathrop",
    "state": "CA",
    "zip": "",
    "latitude": 37.8113429,
    "longitude": -121.2992225,
    "full_address": "16542 Golden Valley Pkwy, Lathrop, CA, USA"
  },
  {
    "name": "Chipotle Mexican Grill",
    "address": "5602 Dennis Mccarthy Dr",
    "city": "Lebec",
    "state": "CA",
    "zip": "",
    "latitude": 34.9864753,
    "longitude": -118.946367,
    "full_address": "5602 Dennis Mccarthy Dr, Lebec, CA, USA"
  },
  {
    "name": "Chipotle Mexican Grill",
    "address": "3238 Livermore Outlets Dr",
    "city": "Livermore",
    "state": "CA",
    "zip": "",
    "latitude": 37.698504,
    "longitude": -121.8449231,
    "full_address": "3238 Livermore Outlets Dr, Livermore, CA, USA"
  },
  {
    "name": "Chipotle Mexican Grill",
    "address": "4691 1St St",
    "city": "Livermore",
    "state": "CA",
    "zip": "",
    "latitude": 37.6789218,
    "longitude": -121.7819871,
    "full_address": "4691 1St St, Livermore, CA, USA"
  },
  {
    "name": "Chipotle Mexican Grill",
    "address": "2310 Tienda Dr",
    "city": "Lodi",
    "state": "CA",
    "zip": "",
    "latitude": 38.1167146,
    "longitude": -121.3025206,
    "full_address": "2310 Tienda Dr, Lodi, CA, USA"
  },
  {
    "name": "Chipotle Mexican Grill",
    "address": "2601 Reynolds Ranch Pkwy",
    "city": "Lodi",
    "state": "CA",
    "zip": "",
    "latitude": 38.10131,
    "longitude": -121.266581,
    "full_address": "2601 Reynolds Ranch Pkwy, Lodi, CA, USA"
  },
  {
    "name": "Chipotle Mexican Grill",
    "address": "1800 Ximeno Ave",
    "city": "Long Beach",
    "state": "CA",
    "zip": "",
    "latitude": 33.790244,
    "longitude": -118.138662,
    "full_address": "1800 Ximeno Ave, Long Beach, CA, USA"
  },
  {
    "name": "Chipotle Mexican Grill",
    "address": "245 Pine Ave",
    "city": "Long Beach",
    "state": "CA",
    "zip": "",
    "latitude": 33.7700861,
    "longitude": -118.1924807,
    "full_address": "245 Pine Ave, Long Beach, CA, USA"
  },
  {
    "name": "Chipotle Mexican Grill",
    "address": "3700 Atlantic Ave",
    "city": "Long Beach",
    "state": "CA",
    "zip": "",
    "latitude": 33.8245018,
    "longitude": -118.184695,
    "full_address": "3700 Atlantic Ave, Long Beach, CA, USA"
  },
  {
    "name": "Chipotle Mexican Grill",
    "address": "6324 E Pacific Coast Hwy",
    "city": "Long Beach",
    "state": "CA",
    "zip": "",
    "latitude": 33.759862,
    "longitude": -118.1148039,
    "full_address": "6324 E Pacific Coast Hwy, Long Beach, CA, USA"
  },
  {
    "name": "Chipotle Mexican Grill",
    "address": "10250 Santa Monica Blvd",
    "city": "Los Angeles",
    "state": "CA",
    "zip": "",
    "latitude": 34.058913,
    "longitude": -118.419345,
    "full_address": "10250 Santa Monica Blvd, Los Angeles, CA, USA"
  },
  {
    "name": "Chipotle Mexican Grill",
    "address": "1077 Broxton Ave",
    "city": "Los Angeles",
    "state": "CA",
    "zip": "",
    "latitude": 34.0611157,
    "longitude": -118.4461524,
    "full_address": "1077 Broxton Ave, Los Angeles, CA, USA"
  },
  {
    "name": "Chipotle Mexican Grill",
    "address": "110 S Fairfax Ave",
    "city": "Los Angeles",
    "state": "CA",
    "zip": "",
    "latitude": 34.073612,
    "longitude": -118.3609531,
    "full_address": "110 S Fairfax Ave, Los Angeles, CA, USA"
  },
  {
    "name": "Chipotle Mexican Grill",
    "address": "1122 W 6Th St",
    "city": "Los Angeles",
    "state": "CA",
    "zip": "",
    "latitude": 33.7388772,
    "longitude": -118.3013292,
    "full_address": "1122 W 6Th St, Los Angeles, CA, USA"
  },
  {
    "name": "Chipotle Mexican Grill",
    "address": "11690 San Vicente Blvd",
    "city": "Los Angeles",
    "state": "CA",
    "zip": "",
    "latitude": 34.0535742,
    "longitude": -118.4649011,
    "full_address": "11690 San Vicente Blvd, Los Angeles, CA, USA"
  },
  {
    "name": "Chipotle Mexican Grill",
    "address": "11711 National Blvd",
    "city": "Los Angeles",
    "state": "CA",
    "zip": "",
    "latitude": 34.0226154,
    "longitude": -118.4391711,
    "full_address": "11711 National Blvd, Los Angeles, CA, USA"
  },
  {
    "name": "Chipotle Mexican Grill",
    "address": "1550 S La Cienega Blvd",
    "city": "Los Angeles",
    "state": "CA",
    "zip": "",
    "latitude": 34.0491089,
    "longitude": -118.3758629,
    "full_address": "1550 S La Cienega Blvd, Los Angeles, CA, USA"
  },
  {
    "name": "Chipotle Mexican Grill",
    "address": "2134 W Sunset Blvd",
    "city": "Los Angeles",
    "state": "CA",
    "zip": "",
    "latitude": 34.0771454,
    "longitude": -118.2647605,
    "full_address": "2134 W Sunset Blvd, Los Angeles, CA, USA"
  },
  {
    "name": "Chipotle Mexican Grill",
    "address": "2200 Trojan Way",
    "city": "Los Angeles",
    "state": "CA",
    "zip": "",
    "latitude": 33.8780385,
    "longitude": -118.0162624,
    "full_address": "2200 Trojan Way, Los Angeles, CA, USA"
  },
  {
    "name": "Chipotle Mexican Grill",
    "address": "255 S Grand Ave",
    "city": "Los Angeles",
    "state": "CA",
    "zip": "",
    "latitude": 33.7419043,
    "longitude": -118.2902047,
    "full_address": "255 S Grand Ave, Los Angeles, CA, USA"
  },
  {
    "name": "Chipotle Mexican Grill",
    "address": "2595 S Hoover St",
    "city": "Los Angeles",
    "state": "CA",
    "zip": "",
    "latitude": 34.0320848,
    "longitude": -118.2843189,
    "full_address": "2595 S Hoover St, Los Angeles, CA, USA"
  },
  {
    "name": "Chipotle Mexican Grill",
    "address": "2921 Los Feliz Blvd",
    "city": "Los Angeles",
    "state": "CA",
    "zip": "",
    "latitude": 34.1261242,
    "longitude": -118.26334,
    "full_address": "2921 Los Feliz Blvd, Los Angeles, CA, USA"
  },
  {
    "name": "Chipotle Mexican Grill",
    "address": "301 N Larchmont Blvd",
    "city": "Los Angeles",
    "state": "CA",
    "zip": "",
    "latitude": 34.0764258,
    "longitude": -118.3239329,
    "full_address": "301 N Larchmont Blvd, Los Angeles, CA, USA"
  },
  {
    "name": "Chipotle Mexican Grill",
    "address": "301 W Olympic Blvd",
    "city": "Los Angeles",
    "state": "CA",
    "zip": "",
    "latitude": 34.0419409,
    "longitude": -118.2586606,
    "full_address": "301 W Olympic Blvd, Los Angeles, CA, USA"
  },
  {
    "name": "Chipotle Mexican Grill",
    "address": "3183 Wilshire Blvd",
    "city": "Los Angeles",
    "state": "CA",
    "zip": "",
    "latitude": 34.0621428,
    "longitude": -118.2909148,
    "full_address": "3183 Wilshire Blvd, Los Angeles, CA, USA"
  },
  {
    "name": "Chipotle Mexican Grill",
    "address": "3748 S Figueroa St",
    "city": "Los Angeles",
    "state": "CA",
    "zip": "",
    "latitude": 34.0169985,
    "longitude": -118.2822768,
    "full_address": "3748 S Figueroa St, Los Angeles, CA, USA"
  },
  {
    "name": "Chipotle Mexican Grill",
    "address": "4550 W Pico Blvd",
    "city": "Los Angeles",
    "state": "CA",
    "zip": "",
    "latitude": 34.048161,
    "longitude": -118.335874,
    "full_address": "4550 W Pico Blvd, Los Angeles, CA, USA"
  },
  {
    "name": "Chipotle Mexican Grill",
    "address": "5047 Eagle Rock Blvd",
    "city": "Los Angeles",
    "state": "CA",
    "zip": "",
    "latitude": 34.1383467,
    "longitude": -118.2146888,
    "full_address": "5047 Eagle Rock Blvd, Los Angeles, CA, USA"
  },
  {
    "name": "Chipotle Mexican Grill",
    "address": "5550 Wilshire Blvd",
    "city": "Los Angeles",
    "state": "CA",
    "zip": "",
    "latitude": 34.0621234,
    "longitude": -118.3502153,
    "full_address": "5550 Wilshire Blvd, Los Angeles, CA, USA"
  },
  {
    "name": "Chipotle Mexican Grill",
    "address": "601 W 7Th St",
    "city": "Los Angeles",
    "state": "CA",
    "zip": "",
    "latitude": 33.737775,
    "longitude": -118.290274,
    "full_address": "601 W 7Th St, Los Angeles, CA, USA"
  },
  {
    "name": "Chipotle Mexican Grill",
    "address": "6290 W Sunset Blvd",
    "city": "Los Angeles",
    "state": "CA",
    "zip": "",
    "latitude": 34.0973564,
    "longitude": -118.3264568,
    "full_address": "6290 W Sunset Blvd, Los Angeles, CA, USA"
  },
  {
    "name": "Chipotle Mexican Grill",
    "address": "6719 La Tijera Blvd",
    "city": "Los Angeles",
    "state": "CA",
    "zip": "",
    "latitude": 33.9788685,
    "longitude": -118.370686,
    "full_address": "6719 La Tijera Blvd, Los Angeles, CA, USA"
  },
  {
    "name": "Chipotle Mexican Grill",
    "address": "7660 W Sunset Blvd",
    "city": "Los Angeles",
    "state": "CA",
    "zip": "",
    "latitude": 34.0978471,
    "longitude": -118.3569052,
    "full_address": "7660 W Sunset Blvd, Los Angeles, CA, USA"
  },
  {
    "name": "Chipotle Mexican Grill",
    "address": "8420 Beverly Blvd",
    "city": "Los Angeles",
    "state": "CA",
    "zip": "",
    "latitude": 34.0758743,
    "longitude": -118.3739611,
    "full_address": "8420 Beverly Blvd, Los Angeles, CA, USA"
  },
  {
    "name": "Chipotle Mexican Grill",
    "address": "1420 E Pacheco Blvd",
    "city": "Los Banos",
    "state": "CA",
    "zip": "",
    "latitude": 37.0570916,
    "longitude": -120.8332294,
    "full_address": "1420 E Pacheco Blvd, Los Banos, CA, USA"
  },
  {
    "name": "Chipotle Mexican Grill",
    "address": "640 Blossom Hill Rd",
    "city": "Los Gatos",
    "state": "CA",
    "zip": "",
    "latitude": 37.2352435,
    "longitude": -121.9636815,
    "full_address": "640 Blossom Hill Rd, Los Gatos, CA, USA"
  },
  {
    "name": "Chipotle Mexican Grill",
    "address": "2180 W Cleveland Ave",
    "city": "Madera",
    "state": "CA",
    "zip": "",
    "latitude": 36.9745253,
    "longitude": -120.0840299,
    "full_address": "2180 W Cleveland Ave, Madera, CA, USA"
  },
  {
    "name": "Chipotle Mexican Grill",
    "address": "3822 Cross Creek Rd",
    "city": "Malibu",
    "state": "CA",
    "zip": "",
    "latitude": 34.0360349,
    "longitude": -118.6846458,
    "full_address": "3822 Cross Creek Rd, Malibu, CA, USA"
  },
  {
    "name": "Chipotle Mexican Grill",
    "address": "1442 Hulsey Way",
    "city": "Manteca",
    "state": "CA",
    "zip": "",
    "latitude": 37.7963584,
    "longitude": -121.1931239,
    "full_address": "1442 Hulsey Way, Manteca, CA, USA"
  },
  {
    "name": "Chipotle Mexican Grill",
    "address": "4718 Admiralty Way",
    "city": "Marina Del Rey",
    "state": "CA",
    "zip": "",
    "latitude": 33.9791348,
    "longitude": -118.438327,
    "full_address": "4718 Admiralty Way, Marina Del Rey, CA, USA"
  },
  {
    "name": "Chipotle Mexican Grill",
    "address": "140 General Stillwell Dr",
    "city": "Marina",
    "state": "CA",
    "zip": "",
    "latitude": null,
    "longitude": null,
    "full_address": "140 General Stillwell Dr, Marina, CA, USA"
  },
  {
    "name": "Chipotle Mexican Grill",
    "address": "1061 Arnold Dr",
    "city": "Martinez",
    "state": "CA",
    "zip": "",
    "latitude": 37.9946587,
    "longitude": -122.1058006,
    "full_address": "1061 Arnold Dr, Martinez, CA, USA"
  },
  {
    "name": "Chipotle Mexican Grill",
    "address": "30024 Haun Rd",
    "city": "Menifee",
    "state": "CA",
    "zip": "",
    "latitude": 33.6845038,
    "longitude": -117.1749817,
    "full_address": "30024 Haun Rd, Menifee, CA, USA"
  },
  {
    "name": "Chipotle Mexican Grill",
    "address": "3110 R St",
    "city": "Merced",
    "state": "CA",
    "zip": "",
    "latitude": 37.3196921,
    "longitude": -120.4861585,
    "full_address": "3110 R St, Merced, CA, USA"
  },
  {
    "name": "Chipotle Mexican Grill",
    "address": "3120 Campus Pkwy",
    "city": "Merced",
    "state": "CA",
    "zip": "",
    "latitude": 37.2949731,
    "longitude": -120.4232321,
    "full_address": "3120 Campus Pkwy, Merced, CA, USA"
  },
  {
    "name": "Chipotle Mexican Grill",
    "address": "135 S El Camino Real",
    "city": "Millbrae",
    "state": "CA",
    "zip": "",
    "latitude": 37.596635,
    "longitude": -122.3863052,
    "full_address": "135 S El Camino Real, Millbrae, CA, USA"
  },
  {
    "name": "Chipotle Mexican Grill",
    "address": "246 Great Mall Dr",
    "city": "Milpitas",
    "state": "CA",
    "zip": "",
    "latitude": 37.4136132,
    "longitude": -121.8966578,
    "full_address": "246 Great Mall Dr, Milpitas, CA, USA"
  },